[
  {
    "name": "Schitul Daniil Sihastrul",
    "type": "lacase_cult",
    "lat": 47.5032283,
    "lon": 25.8735329,
    "source": "csv"
  },
  {
    "name": "Biserica",
    "type": "lacase_cult",
    "lat": 45.409068,
    "lon": 28.0203082,
    "source": "csv"
  },
  {
    "name": "Mănăstirea Sfânta Maria - Techirghiol",
    "type": "lacase_cult",
    "lat": 44.0521688,
    "lon": 28.601458,
    "source": "csv"
  },
  {
    "name": "Biserica",
    "type": "lacase_cult",
    "lat": 45.1608161,
    "lon": 25.8921197,
    "source": "csv"
  },
  {
    "name": "Biserica Înălțarea Domnului",
    "type": "lacase_cult",
    "lat": 45.4318214,
    "lon": 28.0330894,
    "source": "csv"
  },
  {
    "name": "Biserica Cornești",
    "type": "lacase_cult",
    "lat": 46.2203643,
    "lon": 24.7822504,
    "source": "csv"
  },
  {
    "name": "Mănăstirea Feredeu",
    "type": "lacase_cult",
    "lat": 46.2414644,
    "lon": 21.6552638,
    "source": "csv"
  },
  {
    "name": "Biserica Baptistă",
    "type": "lacase_cult",
    "lat": 44.567261,
    "lon": 25.9462464,
    "source": "csv"
  },
  {
    "name": "Biserica Sf Nicolae",
    "type": "lacase_cult",
    "lat": 44.5554512,
    "lon": 25.9448456,
    "source": "csv"
  },
  {
    "name": "Biserica Reformată",
    "type": "lacase_cult",
    "lat": 46.230885,
    "lon": 23.9996562,
    "source": "csv"
  },
  {
    "name": "Mănăstirea Bucium",
    "type": "lacase_cult",
    "lat": 47.1138967,
    "lon": 27.6390591,
    "source": "csv"
  },
  {
    "name": "Biserica Catolică",
    "type": "lacase_cult",
    "lat": 45.8213531,
    "lon": 21.7453336,
    "source": "csv"
  },
  {
    "name": "\"Biserica \"\"Sf. Arh. Mihail și Gavriil\"\"\"",
    "type": "lacase_cult",
    "lat": 45.6764641,
    "lon": 25.6486558,
    "source": "csv"
  },
  {
    "name": "Biserica",
    "type": "lacase_cult",
    "lat": 46.1880057,
    "lon": 21.3370749,
    "source": "csv"
  },
  {
    "name": "Biserica Mărcuța",
    "type": "lacase_cult",
    "lat": 44.4441433,
    "lon": 26.1716382,
    "source": "csv"
  },
  {
    "name": "Biserica Izvorul Nou",
    "type": "lacase_cult",
    "lat": 44.4216454,
    "lon": 26.1375743,
    "source": "csv"
  },
  {
    "name": "\"Biserica Ortodoxă \"\"Toți Sfinții Români\"\"\"",
    "type": "lacase_cult",
    "lat": 44.4067705,
    "lon": 26.0734964,
    "source": "csv"
  },
  {
    "name": "Biserica Ortodoxă „Sfântul Silvestru”",
    "type": "lacase_cult",
    "lat": 44.4429427,
    "lon": 26.115406,
    "source": "csv"
  },
  {
    "name": "Biserica Sfântul Nicolae",
    "type": "lacase_cult",
    "lat": 47.4303813,
    "lon": 24.396054,
    "source": "csv"
  },
  {
    "name": "Biserica",
    "type": "lacase_cult",
    "lat": 46.1740731,
    "lon": 21.3596087,
    "source": "csv"
  },
  {
    "name": "Renașterea",
    "type": "lacase_cult",
    "lat": 46.1693022,
    "lon": 21.3573899,
    "source": "csv"
  },
  {
    "name": "Mănăstirea Nămăești",
    "type": "lacase_cult",
    "lat": 45.3049814,
    "lon": 25.1100654,
    "source": "csv"
  },
  {
    "name": "Biserica Romano-Catolică Neprihănita Zămislire",
    "type": "lacase_cult",
    "lat": 44.7243655,
    "lon": 22.3937204,
    "source": "csv"
  },
  {
    "name": "Biserica din Ieud - Șes",
    "type": "lacase_cult",
    "lat": 47.6758538,
    "lon": 24.2303258,
    "source": "csv"
  },
  {
    "name": "Biserica din Ieud - Deal",
    "type": "lacase_cult",
    "lat": 47.6763894,
    "lon": 24.2364284,
    "source": "csv"
  },
  {
    "name": "Biserica Ortodoxă Gârda de Sus",
    "type": "lacase_cult",
    "lat": 46.4551836,
    "lon": 22.8277403,
    "source": "csv"
  },
  {
    "name": "Biserica Sf. Treime",
    "type": "lacase_cult",
    "lat": 45.0437881,
    "lon": 25.751104,
    "source": "csv"
  },
  {
    "name": "Biserica Cergău",
    "type": "lacase_cult",
    "lat": 46.0985444,
    "lon": 23.9211759,
    "source": "csv"
  },
  {
    "name": "Biserica",
    "type": "lacase_cult",
    "lat": 46.1887309,
    "lon": 21.3003625,
    "source": "csv"
  },
  {
    "name": "Biserica Baptistă Șega",
    "type": "lacase_cult",
    "lat": 46.191496,
    "lon": 21.3038565,
    "source": "csv"
  },
  {
    "name": "Biserica Sfinții Împărații Constantin și Elena",
    "type": "lacase_cult",
    "lat": 46.2245638,
    "lon": 23.9544743,
    "source": "csv"
  },
  {
    "name": "Biserica Adormirea Maicii Domnului",
    "type": "lacase_cult",
    "lat": 44.9558744,
    "lon": 25.7584586,
    "source": "csv"
  },
  {
    "name": "Parohia Pârscov",
    "type": "lacase_cult",
    "lat": 45.2892371,
    "lon": 26.563724,
    "source": "csv"
  },
  {
    "name": "Biserica",
    "type": "lacase_cult",
    "lat": 46.1924874,
    "lon": 21.3059267,
    "source": "csv"
  },
  {
    "name": "Katholische Kirche St. Josef Kleinsanktnikolaus",
    "type": "lacase_cult",
    "lat": 46.1417672,
    "lon": 21.3446291,
    "source": "csv"
  },
  {
    "name": "Betania",
    "type": "lacase_cult",
    "lat": 46.145145,
    "lon": 21.3391469,
    "source": "csv"
  },
  {
    "name": "Betel",
    "type": "lacase_cult",
    "lat": 46.1980237,
    "lon": 21.3018995,
    "source": "csv"
  },
  {
    "name": "Biserica Sfântul Ioan",
    "type": "lacase_cult",
    "lat": 45.6442598,
    "lon": 25.5915883,
    "source": "csv"
  },
  {
    "name": "Biruința",
    "type": "lacase_cult",
    "lat": 46.1471612,
    "lon": 21.3301838,
    "source": "csv"
  },
  {
    "name": "Mănăstirea Ciolanu",
    "type": "lacase_cult",
    "lat": 45.2355817,
    "lon": 26.5472276,
    "source": "csv"
  },
  {
    "name": "Schitul Cetățuia",
    "type": "lacase_cult",
    "lat": 45.2416078,
    "lon": 26.5351582,
    "source": "csv"
  },
  {
    "name": "Biserica Sf Ioan Botezătorul",
    "type": "lacase_cult",
    "lat": 47.0728571,
    "lon": 24.4352777,
    "source": "csv"
  },
  {
    "name": "Biserica Ortodoxă Sârbă",
    "type": "lacase_cult",
    "lat": 46.2102463,
    "lon": 21.2772681,
    "source": "csv"
  },
  {
    "name": "Biserica Ortodoxă",
    "type": "lacase_cult",
    "lat": 46.2110325,
    "lon": 21.2776569,
    "source": "csv"
  },
  {
    "name": "Biserica Reformată",
    "type": "lacase_cult",
    "lat": 46.2031559,
    "lon": 21.2837187,
    "source": "csv"
  },
  {
    "name": "Nr. 7",
    "type": "lacase_cult",
    "lat": 46.1473743,
    "lon": 21.319841,
    "source": "csv"
  },
  {
    "name": "Sfântul Nicolae",
    "type": "lacase_cult",
    "lat": 45.09371,
    "lon": 25.848761,
    "source": "csv"
  },
  {
    "name": "\"Biserica Ortodoxă \"\"Buna Vestire\"\" din Brașov\"",
    "type": "lacase_cult",
    "lat": 45.6471851,
    "lon": 25.5911482,
    "source": "csv"
  },
  {
    "name": "Biserica Evanghelică Sf. Martin",
    "type": "lacase_cult",
    "lat": 45.6517556,
    "lon": 25.5884738,
    "source": "csv"
  },
  {
    "name": "Biserica Brașovul Vechi",
    "type": "lacase_cult",
    "lat": 45.6542175,
    "lon": 25.5893267,
    "source": "csv"
  },
  {
    "name": "Biserica ortodoxă Cornetu",
    "type": "lacase_cult",
    "lat": 44.3405311,
    "lon": 25.9421724,
    "source": "csv"
  },
  {
    "name": "Biserica Bordeni",
    "type": "lacase_cult",
    "lat": 45.0915583,
    "lon": 25.8696092,
    "source": "csv"
  },
  {
    "name": "Biserica",
    "type": "lacase_cult",
    "lat": 46.123931,
    "lon": 21.3850682,
    "source": "csv"
  },
  {
    "name": "Biserica Greco-Catolică",
    "type": "lacase_cult",
    "lat": 46.1627997,
    "lon": 21.4060524,
    "source": "csv"
  },
  {
    "name": "Sfânta Treime",
    "type": "lacase_cult",
    "lat": 46.158017,
    "lon": 21.407759,
    "source": "csv"
  },
  {
    "name": "Mănăstirea Piatra Scrisă",
    "type": "lacase_cult",
    "lat": 45.2172496,
    "lon": 22.3019886,
    "source": "csv"
  },
  {
    "name": "Biserica",
    "type": "lacase_cult",
    "lat": 45.0390514,
    "lon": 22.4151764,
    "source": "csv"
  },
  {
    "name": "Biserica Sf. Vasile cel Mare și Sf. Ilie",
    "type": "lacase_cult",
    "lat": 44.4107993,
    "lon": 26.0166439,
    "source": "csv"
  },
  {
    "name": "Evangelische Kirche",
    "type": "lacase_cult",
    "lat": 45.8951732,
    "lon": 24.3474966,
    "source": "csv"
  },
  {
    "name": "Biserica Adormirea Maicii Domnului",
    "type": "lacase_cult",
    "lat": 45.6178748,
    "lon": 25.6949078,
    "source": "csv"
  },
  {
    "name": "Biserica Catolică",
    "type": "lacase_cult",
    "lat": 47.5701081,
    "lon": 25.1250469,
    "source": "csv"
  },
  {
    "name": "Biserica Ortodoxă",
    "type": "lacase_cult",
    "lat": 47.5721739,
    "lon": 25.1254469,
    "source": "csv"
  },
  {
    "name": "Biserica Germană",
    "type": "lacase_cult",
    "lat": 47.5748149,
    "lon": 25.1268706,
    "source": "csv"
  },
  {
    "name": "Mănăstirea Războieni",
    "type": "lacase_cult",
    "lat": 47.086715,
    "lon": 26.5547078,
    "source": "csv"
  },
  {
    "name": "Orthodoxe Kirche",
    "type": "lacase_cult",
    "lat": 45.8941549,
    "lon": 24.3367756,
    "source": "csv"
  },
  {
    "name": "orthodoxe Kirche",
    "type": "lacase_cult",
    "lat": 45.9199879,
    "lon": 24.3906736,
    "source": "csv"
  },
  {
    "name": "Biserica Evanghelică Cârța",
    "type": "lacase_cult",
    "lat": 45.7920267,
    "lon": 24.5691262,
    "source": "csv"
  },
  {
    "name": "Mănăstirea Piatra Sfântă",
    "type": "lacase_cult",
    "lat": 47.0909267,
    "lon": 27.6405365,
    "source": "csv"
  },
  {
    "name": "Biserica Barnova",
    "type": "lacase_cult",
    "lat": 47.0822274,
    "lon": 27.6236709,
    "source": "csv"
  },
  {
    "name": "Schitul Peștera",
    "type": "lacase_cult",
    "lat": 45.3913181,
    "lon": 25.4393873,
    "source": "csv"
  },
  {
    "name": "Biserica",
    "type": "lacase_cult",
    "lat": 45.1274286,
    "lon": 25.5605187,
    "source": "csv"
  },
  {
    "name": "Biserica",
    "type": "lacase_cult",
    "lat": 45.1675734,
    "lon": 25.5424278,
    "source": "csv"
  },
  {
    "name": "Biserica Bezdead",
    "type": "lacase_cult",
    "lat": 45.1412729,
    "lon": 25.4925654,
    "source": "csv"
  },
  {
    "name": "Biserica Rânca",
    "type": "lacase_cult",
    "lat": 45.2909675,
    "lon": 23.6808049,
    "source": "csv"
  },
  {
    "name": "Biserica catolică „Sfinții Petru și Pavel”",
    "type": "lacase_cult",
    "lat": 44.4904317,
    "lon": 26.0917094,
    "source": "csv"
  },
  {
    "name": "Biserica Floreasca - Sf Nicolae",
    "type": "lacase_cult",
    "lat": 44.4701197,
    "lon": 26.1046611,
    "source": "csv"
  },
  {
    "name": "Mânăstirea Bujoreni",
    "type": "lacase_cult",
    "lat": 46.2830405,
    "lon": 27.8507209,
    "source": "csv"
  },
  {
    "name": "Biserica Ortodoxă „Doamna Oltea”",
    "type": "lacase_cult",
    "lat": 44.4574215,
    "lon": 26.1063257,
    "source": "csv"
  },
  {
    "name": "Biserica Ortodoxă „Sfântul Gheorghe” Otopeni",
    "type": "lacase_cult",
    "lat": 44.5523213,
    "lon": 26.0742977,
    "source": "csv"
  },
  {
    "name": "Biserică Evanghelică Fortificată",
    "type": "lacase_cult",
    "lat": 45.898463,
    "lon": 25.5379824,
    "source": "csv"
  },
  {
    "name": "Mănăstirea Șag-Timișeni",
    "type": "lacase_cult",
    "lat": 45.6531667,
    "lon": 21.2051425,
    "source": "csv"
  },
  {
    "name": "Biserica Sf. Treime",
    "type": "lacase_cult",
    "lat": 46.206389,
    "lon": 23.6743699,
    "source": "csv"
  },
  {
    "name": "Biserica Sfânta Treime",
    "type": "lacase_cult",
    "lat": 44.3183176,
    "lon": 23.7928514,
    "source": "csv"
  },
  {
    "name": "Biserica Reformată Dumbrava",
    "type": "lacase_cult",
    "lat": 45.8245137,
    "lon": 22.1171596,
    "source": "csv"
  },
  {
    "name": "Mănăstirea Lainici",
    "type": "lacase_cult",
    "lat": 45.2643015,
    "lon": 23.3925652,
    "source": "csv"
  },
  {
    "name": "Biserica Nouă",
    "type": "lacase_cult",
    "lat": 46.9613343,
    "lon": 24.200842,
    "source": "csv"
  },
  {
    "name": "Biserica Veche",
    "type": "lacase_cult",
    "lat": 46.9627729,
    "lon": 24.2022142,
    "source": "csv"
  },
  {
    "name": "Capela Adormirea Maicii Domnului",
    "type": "lacase_cult",
    "lat": 46.2295842,
    "lon": 24.8192908,
    "source": "csv"
  },
  {
    "name": "Biserica Unitariană",
    "type": "lacase_cult",
    "lat": 46.3056662,
    "lon": 23.1322884,
    "source": "csv"
  },
  {
    "name": "Mănăstirea Sfântul Ioan cel Nou",
    "type": "lacase_cult",
    "lat": 47.6417094,
    "lon": 26.262906,
    "source": "csv"
  },
  {
    "name": "Biserica Sfântul Ștefan",
    "type": "lacase_cult",
    "lat": 45.4530069,
    "lon": 28.027132,
    "source": "csv"
  },
  {
    "name": "Biserica Sfânta Treime",
    "type": "lacase_cult",
    "lat": 44.1119628,
    "lon": 24.3471437,
    "source": "csv"
  },
  {
    "name": "Biserica Ortodoxa Toti Sfintii",
    "type": "lacase_cult",
    "lat": 44.1149399,
    "lon": 24.3493725,
    "source": "csv"
  },
  {
    "name": "Biserica Maranată",
    "type": "lacase_cult",
    "lat": 45.751094,
    "lon": 22.8976355,
    "source": "csv"
  },
  {
    "name": "Biserica Romano-Catolică",
    "type": "lacase_cult",
    "lat": 45.7523424,
    "lon": 22.89857,
    "source": "csv"
  },
  {
    "name": "Biserica Romano-Catolica Comuna Socond",
    "type": "lacase_cult",
    "lat": 47.5627016,
    "lon": 22.9506214,
    "source": "csv"
  },
  {
    "name": "Biserica Golgota",
    "type": "lacase_cult",
    "lat": 45.7626979,
    "lon": 22.9171838,
    "source": "csv"
  },
  {
    "name": "Mănăstirea Movila lui Burcel",
    "type": "lacase_cult",
    "lat": 46.8463229,
    "lon": 27.8057168,
    "source": "csv"
  },
  {
    "name": "Biserica Penticostală Betania",
    "type": "lacase_cult",
    "lat": 44.1128265,
    "lon": 24.3515083,
    "source": "csv"
  },
  {
    "name": "Biserica Sfintii Apostoli Petru si Pavel",
    "type": "lacase_cult",
    "lat": 44.1175225,
    "lon": 24.3549567,
    "source": "csv"
  },
  {
    "name": "Biserica Protestantă Sfânta Treime",
    "type": "lacase_cult",
    "lat": 44.1112597,
    "lon": 24.3440187,
    "source": "csv"
  },
  {
    "name": "Chilia Cleopa",
    "type": "lacase_cult",
    "lat": 47.1760925,
    "lon": 26.1656278,
    "source": "csv"
  },
  {
    "name": "Biserica dintr-un brad",
    "type": "lacase_cult",
    "lat": 47.1490917,
    "lon": 26.1798134,
    "source": "csv"
  },
  {
    "name": "Mănăstirea Sihla",
    "type": "lacase_cult",
    "lat": 47.1494522,
    "lon": 26.1804772,
    "source": "csv"
  },
  {
    "name": "Peștera Cuvioasei Teodora",
    "type": "lacase_cult",
    "lat": 47.1502637,
    "lon": 26.1795879,
    "source": "csv"
  },
  {
    "name": "Biserica Grozești",
    "type": "lacase_cult",
    "lat": 46.9958263,
    "lon": 28.0559329,
    "source": "csv"
  },
  {
    "name": "Biserica Sfantul Ioan Botezatorul",
    "type": "lacase_cult",
    "lat": 44.111269,
    "lon": 24.3419404,
    "source": "csv"
  },
  {
    "name": "biserică",
    "type": "lacase_cult",
    "lat": 47.9265648,
    "lon": 26.6505807,
    "source": "csv"
  },
  {
    "name": "Biserica Nicșeni",
    "type": "lacase_cult",
    "lat": 47.8592736,
    "lon": 26.6350726,
    "source": "csv"
  },
  {
    "name": "Sinagoga",
    "type": "lacase_cult",
    "lat": 44.1152919,
    "lon": 24.3529637,
    "source": "csv"
  },
  {
    "name": "Biserica Sfantul Ierarh Vasile",
    "type": "lacase_cult",
    "lat": 44.1084746,
    "lon": 24.3420657,
    "source": "csv"
  },
  {
    "name": "Biserica Chișcăreni",
    "type": "lacase_cult",
    "lat": 47.9635184,
    "lon": 26.828038,
    "source": "csv"
  },
  {
    "name": "Mănăstirea Mălinești",
    "type": "lacase_cult",
    "lat": 46.7838341,
    "lon": 27.2820025,
    "source": "csv"
  },
  {
    "name": "Biserica Sfânta Cuvioasă Parascheva",
    "type": "lacase_cult",
    "lat": 47.7451446,
    "lon": 26.6605187,
    "source": "csv"
  },
  {
    "name": "Biserica fortificată din Saschiz",
    "type": "lacase_cult",
    "lat": 46.1941575,
    "lon": 24.9601603,
    "source": "csv"
  },
  {
    "name": "Mănăstirea Măcin",
    "type": "lacase_cult",
    "lat": 45.2557225,
    "lon": 28.142032,
    "source": "csv"
  },
  {
    "name": "Biserica Ortodoxă Slobozia",
    "type": "lacase_cult",
    "lat": 47.3980346,
    "lon": 26.7433454,
    "source": "csv"
  },
  {
    "name": "Biserica Dâmbovicioara",
    "type": "lacase_cult",
    "lat": 45.4374543,
    "lon": 25.2319441,
    "source": "csv"
  },
  {
    "name": "Biserica Sirnea (1923)",
    "type": "lacase_cult",
    "lat": 45.4707037,
    "lon": 25.2554654,
    "source": "csv"
  },
  {
    "name": "Biserica Sfânta Elisabeta",
    "type": "lacase_cult",
    "lat": 46.1526969,
    "lon": 24.7227868,
    "source": "csv"
  },
  {
    "name": "Schitul Colț (Suseni-Colț)",
    "type": "lacase_cult",
    "lat": 45.4800481,
    "lon": 22.8718455,
    "source": "csv"
  },
  {
    "name": "Biserica Ortodoxă Bogata Olteană (1820)",
    "type": "lacase_cult",
    "lat": 45.979741,
    "lon": 25.3547657,
    "source": "csv"
  },
  {
    "name": "Biserica Sfântul Ilie",
    "type": "lacase_cult",
    "lat": 46.2045002,
    "lon": 26.4352477,
    "source": "csv"
  },
  {
    "name": "Biserica",
    "type": "lacase_cult",
    "lat": 46.2132601,
    "lon": 26.4462048,
    "source": "csv"
  },
  {
    "name": "Biserica Evanghelică Luterană",
    "type": "lacase_cult",
    "lat": 45.765112,
    "lon": 25.6427769,
    "source": "csv"
  },
  {
    "name": "Biserica Ortodoxă",
    "type": "lacase_cult",
    "lat": 45.762942,
    "lon": 25.637636,
    "source": "csv"
  },
  {
    "name": "Biserica",
    "type": "lacase_cult",
    "lat": 46.4431844,
    "lon": 21.5654205,
    "source": "csv"
  },
  {
    "name": "Schitul Breaza",
    "type": "lacase_cult",
    "lat": 45.6733685,
    "lon": 24.8841128,
    "source": "csv"
  },
  {
    "name": "Biserica Memorială Gheorghe Lazăr",
    "type": "lacase_cult",
    "lat": 45.7265821,
    "lon": 24.3714367,
    "source": "csv"
  },
  {
    "name": "Schitul Durău",
    "type": "lacase_cult",
    "lat": 46.9979291,
    "lon": 25.9208505,
    "source": "csv"
  },
  {
    "name": "Biserica Evanghelica Sânpetru",
    "type": "lacase_cult",
    "lat": 45.712167,
    "lon": 25.6329934,
    "source": "csv"
  },
  {
    "name": "Biserica Ortodoxă „Sfântul Gheorghe - Capră”",
    "type": "lacase_cult",
    "lat": 44.4445627,
    "lon": 26.1462276,
    "source": "csv"
  },
  {
    "name": "Biserica Sfinții Trei Ierarhi",
    "type": "lacase_cult",
    "lat": 45.6662796,
    "lon": 25.5772765,
    "source": "csv"
  },
  {
    "name": "Biserica Penticostală",
    "type": "lacase_cult",
    "lat": 46.4442396,
    "lon": 21.5654154,
    "source": "csv"
  },
  {
    "name": "Biserica fortificată din Viscri",
    "type": "lacase_cult",
    "lat": 46.0548612,
    "lon": 25.0885808,
    "source": "csv"
  },
  {
    "name": "Biserica Sfântul Antonie - Colentina",
    "type": "lacase_cult",
    "lat": 44.4601104,
    "lon": 26.1335943,
    "source": "csv"
  },
  {
    "name": "Biserica Sf Ion",
    "type": "lacase_cult",
    "lat": 45.9632689,
    "lon": 24.7305704,
    "source": "csv"
  },
  {
    "name": "Biserică Fortificată",
    "type": "lacase_cult",
    "lat": 46.1375642,
    "lon": 24.4140861,
    "source": "csv"
  },
  {
    "name": "Biserica Sfântul Ilie - Dancu",
    "type": "lacase_cult",
    "lat": 47.1539149,
    "lon": 27.6645401,
    "source": "csv"
  },
  {
    "name": "Biserica de Lemn Sfinții Arhangheli",
    "type": "lacase_cult",
    "lat": 47.8028594,
    "lon": 23.9221228,
    "source": "csv"
  },
  {
    "name": "Biserica Ortodoxă Schitu Măgureanu",
    "type": "lacase_cult",
    "lat": 44.439188,
    "lon": 26.087344,
    "source": "csv"
  },
  {
    "name": "Geamie Osmancea",
    "type": "lacase_cult",
    "lat": 44.0125426,
    "lon": 28.3233392,
    "source": "csv"
  },
  {
    "name": "Adormirea Maicii Domnului",
    "type": "lacase_cult",
    "lat": 46.9483601,
    "lon": 26.4442365,
    "source": "csv"
  },
  {
    "name": "Biserica Catolică",
    "type": "lacase_cult",
    "lat": 45.9650376,
    "lon": 21.4776323,
    "source": "csv"
  },
  {
    "name": "\"Casa de rugăciune \"\"Filadelfia\"\"\"",
    "type": "lacase_cult",
    "lat": 45.9644125,
    "lon": 21.4760582,
    "source": "csv"
  },
  {
    "name": "Biserica Ortodoxă",
    "type": "lacase_cult",
    "lat": 45.9650232,
    "lon": 21.482434,
    "source": "csv"
  },
  {
    "name": "Biserica Ortodoxă Greacă",
    "type": "lacase_cult",
    "lat": 46.3420956,
    "lon": 21.3078466,
    "source": "csv"
  },
  {
    "name": "Biserica Ortodoxă Română",
    "type": "lacase_cult",
    "lat": 46.3419075,
    "lon": 21.3076908,
    "source": "csv"
  },
  {
    "name": "Biserica Ortodoxă",
    "type": "lacase_cult",
    "lat": 46.3851518,
    "lon": 21.3111335,
    "source": "csv"
  },
  {
    "name": "Biserica Nașterea Maicii Domnului",
    "type": "lacase_cult",
    "lat": 47.2164749,
    "lon": 27.522049,
    "source": "csv"
  },
  {
    "name": "Mănăstirea Râmeț",
    "type": "lacase_cult",
    "lat": 46.300868,
    "lon": 23.5215663,
    "source": "csv"
  },
  {
    "name": "Biserica",
    "type": "lacase_cult",
    "lat": 46.3398326,
    "lon": 21.3121171,
    "source": "csv"
  },
  {
    "name": "Biserica Nașterea Maicii Domnului",
    "type": "lacase_cult",
    "lat": 47.3473312,
    "lon": 25.3485232,
    "source": "csv"
  },
  {
    "name": "Biserica Ortodoxă Negrești - Sf. Ilie",
    "type": "lacase_cult",
    "lat": 47.3435157,
    "lon": 25.3488022,
    "source": "csv"
  },
  {
    "name": "Mânăstirea Măgura Ocnei (Înălțarea Domnului)",
    "type": "lacase_cult",
    "lat": 46.2707925,
    "lon": 26.586395,
    "source": "csv"
  },
  {
    "name": "Catedrala Sfânta Treime",
    "type": "lacase_cult",
    "lat": 47.3445315,
    "lon": 25.3562509,
    "source": "csv"
  },
  {
    "name": "Biserica Bârnărel",
    "type": "lacase_cult",
    "lat": 47.3498094,
    "lon": 25.3681545,
    "source": "csv"
  },
  {
    "name": "Mănăstirea Sfântul Dimitrie",
    "type": "lacase_cult",
    "lat": 47.3476713,
    "lon": 25.3695471,
    "source": "csv"
  },
  {
    "name": "Sf Mina",
    "type": "lacase_cult",
    "lat": 46.9368819,
    "lon": 26.3804598,
    "source": "csv"
  },
  {
    "name": "Biserica Ortodoxă Sf. Alexandru",
    "type": "lacase_cult",
    "lat": 44.4566275,
    "lon": 26.1412016,
    "source": "csv"
  },
  {
    "name": "Biserica Catolică Sfântul Iosif",
    "type": "lacase_cult",
    "lat": 46.6423289,
    "lon": 27.7277364,
    "source": "csv"
  },
  {
    "name": "Mănăstirea Cebza",
    "type": "lacase_cult",
    "lat": 45.5589521,
    "lon": 21.0642668,
    "source": "csv"
  },
  {
    "name": "Biserica Sfântu Vasile",
    "type": "lacase_cult",
    "lat": 46.9506889,
    "lon": 24.6920995,
    "source": "csv"
  },
  {
    "name": "Biserica Gledin",
    "type": "lacase_cult",
    "lat": 46.9565295,
    "lon": 24.7057062,
    "source": "csv"
  },
  {
    "name": "Biserica Ortodoxă - Hodișa",
    "type": "lacase_cult",
    "lat": 47.5770043,
    "lon": 22.9743149,
    "source": "csv"
  },
  {
    "name": "Biserica Reformată",
    "type": "lacase_cult",
    "lat": 47.4760705,
    "lon": 22.5818012,
    "source": "csv"
  },
  {
    "name": "\"Biserica Ortodoxă \"\"Sfânta Treime - Dudești\"\"\"",
    "type": "lacase_cult",
    "lat": 44.4224012,
    "lon": 26.1321784,
    "source": "csv"
  },
  {
    "name": "\"Biserica Ortodoxă \"\"Delea Nouă - Calist\"\"\"",
    "type": "lacase_cult",
    "lat": 44.4313839,
    "lon": 26.1305134,
    "source": "csv"
  },
  {
    "name": "Biserica Ortodoxă „Dichiu”",
    "type": "lacase_cult",
    "lat": 44.4476107,
    "lon": 26.1107163,
    "source": "csv"
  },
  {
    "name": "Biserica Văculești",
    "type": "lacase_cult",
    "lat": 47.8762052,
    "lon": 26.4123283,
    "source": "csv"
  },
  {
    "name": "Mănăstirea Țeghea",
    "type": "lacase_cult",
    "lat": 47.5866343,
    "lon": 22.7201974,
    "source": "csv"
  },
  {
    "name": "Biserica Sfântul Iosif",
    "type": "lacase_cult",
    "lat": 45.1525826,
    "lon": 26.8114058,
    "source": "csv"
  },
  {
    "name": "Biserica Sfânta Parascheva",
    "type": "lacase_cult",
    "lat": 45.1558472,
    "lon": 26.8057625,
    "source": "csv"
  },
  {
    "name": "Biserica Sfinții Mihail și Gavril",
    "type": "lacase_cult",
    "lat": 45.1374809,
    "lon": 26.8316764,
    "source": "csv"
  },
  {
    "name": "Maranata",
    "type": "lacase_cult",
    "lat": 45.7661293,
    "lon": 21.2820593,
    "source": "csv"
  },
  {
    "name": "Biserica Podgoria",
    "type": "lacase_cult",
    "lat": 47.0595695,
    "lon": 22.0026115,
    "source": "csv"
  },
  {
    "name": "Biserica Catolică Mădăras",
    "type": "lacase_cult",
    "lat": 47.6834397,
    "lon": 22.8643308,
    "source": "csv"
  },
  {
    "name": "Biserica Greco-Catolică",
    "type": "lacase_cult",
    "lat": 46.9967468,
    "lon": 21.9967072,
    "source": "csv"
  },
  {
    "name": "Biserica Sfântul Nicolae - Socola",
    "type": "lacase_cult",
    "lat": 47.1443308,
    "lon": 27.5952762,
    "source": "csv"
  },
  {
    "name": "Biserica Mănăstirii Premonstratense Maica Îndurerată",
    "type": "lacase_cult",
    "lat": 47.0600859,
    "lon": 21.9315468,
    "source": "csv"
  },
  {
    "name": "Piarista Tanulmányi Ház",
    "type": "lacase_cult",
    "lat": 46.367744,
    "lon": 25.8088144,
    "source": "csv"
  },
  {
    "name": "Congregația Surorilor Oblate Asumpționiste „Mănăstirea Sfânta Treime”",
    "type": "lacase_cult",
    "lat": 44.4904479,
    "lon": 26.0922645,
    "source": "csv"
  },
  {
    "name": "Biserica Ortodoxă „Sfântul Ilie”",
    "type": "lacase_cult",
    "lat": 45.3874831,
    "lon": 27.0615788,
    "source": "csv"
  },
  {
    "name": "Biserica Eroilor",
    "type": "lacase_cult",
    "lat": 43.89822,
    "lon": 25.9683241,
    "source": "csv"
  },
  {
    "name": "Biserica Cucuteni",
    "type": "lacase_cult",
    "lat": 47.2738499,
    "lon": 26.9381068,
    "source": "csv"
  },
  {
    "name": "Schitul Cotnari - Liteanca",
    "type": "lacase_cult",
    "lat": 47.3479026,
    "lon": 26.9453325,
    "source": "csv"
  },
  {
    "name": "Biserica Sf Dumitru",
    "type": "lacase_cult",
    "lat": 47.4273955,
    "lon": 26.9042821,
    "source": "csv"
  },
  {
    "name": "Mănăstirea Vorona",
    "type": "lacase_cult",
    "lat": 47.5803264,
    "lon": 26.6654546,
    "source": "csv"
  },
  {
    "name": "Mănăstirea Vorona",
    "type": "lacase_cult",
    "lat": 47.579539,
    "lon": 26.665652,
    "source": "csv"
  },
  {
    "name": "Cimitir",
    "type": "lacase_cult",
    "lat": 45.7411152,
    "lon": 22.9856339,
    "source": "csv"
  },
  {
    "name": "biserică",
    "type": "lacase_cult",
    "lat": 45.0853814,
    "lon": 26.4118987,
    "source": "csv"
  },
  {
    "name": "Biserica Romano-Catolică Craidorolț",
    "type": "lacase_cult",
    "lat": 47.6121235,
    "lon": 22.703155,
    "source": "csv"
  },
  {
    "name": "Biserica Ortodoxă Pișcari",
    "type": "lacase_cult",
    "lat": 47.6549029,
    "lon": 22.7301068,
    "source": "csv"
  },
  {
    "name": "Biserica Sf.Iosif",
    "type": "lacase_cult",
    "lat": 47.7926817,
    "lon": 22.8887129,
    "source": "csv"
  },
  {
    "name": "Biserica Ortodoxă Amați",
    "type": "lacase_cult",
    "lat": 47.7410192,
    "lon": 22.921748,
    "source": "csv"
  },
  {
    "name": "Biserica",
    "type": "lacase_cult",
    "lat": 45.3623326,
    "lon": 26.6623598,
    "source": "csv"
  },
  {
    "name": "Biserica Sfinții Trei Ierarh",
    "type": "lacase_cult",
    "lat": 46.5301169,
    "lon": 24.5563716,
    "source": "csv"
  },
  {
    "name": "Schit Zosim vechi",
    "type": "lacase_cult",
    "lat": 47.6558298,
    "lon": 26.7697298,
    "source": "csv"
  },
  {
    "name": "Biserica Lăzești",
    "type": "lacase_cult",
    "lat": 46.4210711,
    "lon": 22.9085273,
    "source": "csv"
  },
  {
    "name": "Biserica Sfântul Anton de Padova",
    "type": "lacase_cult",
    "lat": 45.5607876,
    "lon": 25.325779,
    "source": "csv"
  },
  {
    "name": "Biserica Creștină Adventistă de Ziua a Șaptea",
    "type": "lacase_cult",
    "lat": 44.2056438,
    "lon": 27.3118545,
    "source": "csv"
  },
  {
    "name": "Biserica Sfântul Gheorghe",
    "type": "lacase_cult",
    "lat": 44.1890127,
    "lon": 27.3428472,
    "source": "csv"
  },
  {
    "name": "Biserica Pogorârea Sfântului Duh",
    "type": "lacase_cult",
    "lat": 46.9282892,
    "lon": 26.36145,
    "source": "csv"
  },
  {
    "name": "Biserica Adormirea Maicii Domnului (Precista)",
    "type": "lacase_cult",
    "lat": 46.9333868,
    "lon": 26.3604067,
    "source": "csv"
  },
  {
    "name": "Biserica Șieuț",
    "type": "lacase_cult",
    "lat": 46.9764771,
    "lon": 24.6483582,
    "source": "csv"
  },
  {
    "name": "Biserica Sfântul Daniel",
    "type": "lacase_cult",
    "lat": 47.1333629,
    "lon": 27.5724612,
    "source": "csv"
  },
  {
    "name": "Biserica Buzești",
    "type": "lacase_cult",
    "lat": 44.4488174,
    "lon": 24.7200044,
    "source": "csv"
  },
  {
    "name": "Biserica Sfinții Constantin și Elena",
    "type": "lacase_cult",
    "lat": 47.1789214,
    "lon": 27.5166395,
    "source": "csv"
  },
  {
    "name": "Mănăstirea Clocociov",
    "type": "lacase_cult",
    "lat": 44.4117412,
    "lon": 24.3639856,
    "source": "csv"
  },
  {
    "name": "Biserica de lemn din Budești Josani",
    "type": "lacase_cult",
    "lat": 47.7315836,
    "lon": 23.9441494,
    "source": "csv"
  },
  {
    "name": "Biserica Sfântul Ilie",
    "type": "lacase_cult",
    "lat": 47.1104748,
    "lon": 27.6082243,
    "source": "csv"
  },
  {
    "name": "Biserica Sfânta Ana",
    "type": "lacase_cult",
    "lat": 46.5337013,
    "lon": 24.5724888,
    "source": "csv"
  },
  {
    "name": "Biserica",
    "type": "lacase_cult",
    "lat": 46.5504938,
    "lon": 24.5695793,
    "source": "csv"
  },
  {
    "name": "Biserica Clocociov",
    "type": "lacase_cult",
    "lat": 44.4164217,
    "lon": 24.3695017,
    "source": "csv"
  },
  {
    "name": "Biserica Ortodoxă „Iancu Vechi”",
    "type": "lacase_cult",
    "lat": 44.4400149,
    "lon": 26.1290681,
    "source": "csv"
  },
  {
    "name": "Biserica Ortodoxă",
    "type": "lacase_cult",
    "lat": 46.3330957,
    "lon": 21.6932903,
    "source": "csv"
  },
  {
    "name": "Biserica Reformată",
    "type": "lacase_cult",
    "lat": 46.3302075,
    "lon": 21.6916562,
    "source": "csv"
  },
  {
    "name": "Biserica Baptistă",
    "type": "lacase_cult",
    "lat": 46.3285548,
    "lon": 21.6894278,
    "source": "csv"
  },
  {
    "name": "Biserica Luterană",
    "type": "lacase_cult",
    "lat": 46.325565,
    "lon": 21.6876669,
    "source": "csv"
  },
  {
    "name": "Biserica Penticostală",
    "type": "lacase_cult",
    "lat": 46.3259406,
    "lon": 21.6857649,
    "source": "csv"
  },
  {
    "name": "Biserica Tomești",
    "type": "lacase_cult",
    "lat": 47.1249772,
    "lon": 27.6957018,
    "source": "csv"
  },
  {
    "name": "Capela Minoriților",
    "type": "lacase_cult",
    "lat": 46.1964249,
    "lon": 21.3070424,
    "source": "csv"
  },
  {
    "name": "Biserica Sf. Mucenic Gheorghe",
    "type": "lacase_cult",
    "lat": 44.2791021,
    "lon": 24.990284,
    "source": "csv"
  },
  {
    "name": "Biserica „Sfânta Irina”",
    "type": "lacase_cult",
    "lat": 44.4983275,
    "lon": 26.1738736,
    "source": "csv"
  },
  {
    "name": "\"Biserica Ortodoxă \"\"Sfântul Vasile cel Mare și Sfântul Serafim de Sarov\"\"\"",
    "type": "lacase_cult",
    "lat": 45.8081098,
    "lon": 24.1549692,
    "source": "csv"
  },
  {
    "name": "Biserica Sfântul Andrei",
    "type": "lacase_cult",
    "lat": 44.8961817,
    "lon": 23.1576934,
    "source": "csv"
  },
  {
    "name": "Biserica Sf Voievozi",
    "type": "lacase_cult",
    "lat": 44.0113652,
    "lon": 25.2263568,
    "source": "csv"
  },
  {
    "name": "Biserica Dumbrava",
    "type": "lacase_cult",
    "lat": 47.0770118,
    "lon": 27.5506113,
    "source": "csv"
  },
  {
    "name": "Biserica Ciurea",
    "type": "lacase_cult",
    "lat": 47.060399,
    "lon": 27.5692741,
    "source": "csv"
  },
  {
    "name": "Biserica Cuvioasa Parascheva",
    "type": "lacase_cult",
    "lat": 46.9580355,
    "lon": 27.9405632,
    "source": "csv"
  },
  {
    "name": "Biserica Ciortești",
    "type": "lacase_cult",
    "lat": 46.9091658,
    "lon": 27.8405575,
    "source": "csv"
  },
  {
    "name": "Biserica Dolhești",
    "type": "lacase_cult",
    "lat": 46.8760508,
    "lon": 27.9001975,
    "source": "csv"
  },
  {
    "name": "Biserica Pietriș",
    "type": "lacase_cult",
    "lat": 46.8839295,
    "lon": 27.9153257,
    "source": "csv"
  },
  {
    "name": "Biserica",
    "type": "lacase_cult",
    "lat": 46.8544453,
    "lon": 27.8868374,
    "source": "csv"
  },
  {
    "name": "Biserica Ortodoxă „Sfântul Andrei”",
    "type": "lacase_cult",
    "lat": 44.4176039,
    "lon": 26.0163558,
    "source": "csv"
  },
  {
    "name": "Biserica Creștină Baptistă Providența Tulca",
    "type": "lacase_cult",
    "lat": 46.7860999,
    "lon": 21.7728329,
    "source": "csv"
  },
  {
    "name": "Biserica Ortodoxă",
    "type": "lacase_cult",
    "lat": 46.7867427,
    "lon": 21.7717868,
    "source": "csv"
  },
  {
    "name": "Biserica Ortodoxă",
    "type": "lacase_cult",
    "lat": 46.7908322,
    "lon": 21.8187617,
    "source": "csv"
  },
  {
    "name": "Biserica Baptistă",
    "type": "lacase_cult",
    "lat": 46.7897914,
    "lon": 21.8186121,
    "source": "csv"
  },
  {
    "name": "Biserica Adventistă",
    "type": "lacase_cult",
    "lat": 47.7406364,
    "lon": 26.6528869,
    "source": "csv"
  },
  {
    "name": "Biserica Vovidenia",
    "type": "lacase_cult",
    "lat": 47.7404362,
    "lon": 26.663504,
    "source": "csv"
  },
  {
    "name": "Mănăstirea Podgoria Copou",
    "type": "lacase_cult",
    "lat": 47.1930539,
    "lon": 27.5484983,
    "source": "csv"
  },
  {
    "name": "Biserica Mitocul Maicilor",
    "type": "lacase_cult",
    "lat": 47.1677584,
    "lon": 27.5800084,
    "source": "csv"
  },
  {
    "name": "Capela Sfinții Împărați Constantin și Elena",
    "type": "lacase_cult",
    "lat": 47.2012953,
    "lon": 27.5380161,
    "source": "csv"
  },
  {
    "name": "Biserica Botiza",
    "type": "lacase_cult",
    "lat": 47.6899974,
    "lon": 24.1224298,
    "source": "csv"
  },
  {
    "name": "Biserica",
    "type": "lacase_cult",
    "lat": 47.162046,
    "lon": 27.5827819,
    "source": "csv"
  },
  {
    "name": "Sfințești",
    "type": "lacase_cult",
    "lat": 44.183333,
    "lon": 25.1,
    "source": "csv"
  },
  {
    "name": "Biserica Sfântul Voievod Ștefan cel Mare și Sfânt",
    "type": "lacase_cult",
    "lat": 47.1479259,
    "lon": 27.5867154,
    "source": "csv"
  },
  {
    "name": "Biserica Sfinții Trei Ierarhi",
    "type": "lacase_cult",
    "lat": 46.3088276,
    "lon": 23.7184061,
    "source": "csv"
  },
  {
    "name": "Biserica Ortodoxă Sfântul Calinic",
    "type": "lacase_cult",
    "lat": 44.4268897,
    "lon": 26.1491417,
    "source": "csv"
  },
  {
    "name": "Biserica Ortodoxă „Sfântul Nicolae” Otopeni",
    "type": "lacase_cult",
    "lat": 44.5524067,
    "lon": 26.0895774,
    "source": "csv"
  },
  {
    "name": "Biserica Adormirea Maicii Domnului",
    "type": "lacase_cult",
    "lat": 47.204925,
    "lon": 26.3657619,
    "source": "csv"
  },
  {
    "name": "Biserica Adventistă Balta Albă",
    "type": "lacase_cult",
    "lat": 44.4112149,
    "lon": 26.1625572,
    "source": "csv"
  },
  {
    "name": "Biserica Pogorârea Sfântului Duh",
    "type": "lacase_cult",
    "lat": 47.1795279,
    "lon": 27.4979203,
    "source": "csv"
  },
  {
    "name": "Biserica Sf. Nicolae",
    "type": "lacase_cult",
    "lat": 44.4270515,
    "lon": 24.3557808,
    "source": "csv"
  },
  {
    "name": "Biserica Maica Domnului",
    "type": "lacase_cult",
    "lat": 44.4279419,
    "lon": 24.3579032,
    "source": "csv"
  },
  {
    "name": "Biserica",
    "type": "lacase_cult",
    "lat": 45.9027071,
    "lon": 21.5033189,
    "source": "csv"
  },
  {
    "name": "Biserica",
    "type": "lacase_cult",
    "lat": 44.7640519,
    "lon": 25.2577839,
    "source": "csv"
  },
  {
    "name": "Biserica",
    "type": "lacase_cult",
    "lat": 44.7925917,
    "lon": 25.2428437,
    "source": "csv"
  },
  {
    "name": "Biserica",
    "type": "lacase_cult",
    "lat": 44.8441075,
    "lon": 25.2510417,
    "source": "csv"
  },
  {
    "name": "Biserica",
    "type": "lacase_cult",
    "lat": 46.5579956,
    "lon": 24.5805958,
    "source": "csv"
  },
  {
    "name": "Biserica Rusciori",
    "type": "lacase_cult",
    "lat": 45.8137412,
    "lon": 24.0302566,
    "source": "csv"
  },
  {
    "name": "Evanghelische Kirche",
    "type": "lacase_cult",
    "lat": 45.8167065,
    "lon": 24.0287283,
    "source": "csv"
  },
  {
    "name": "Schitul Cerebuc Sihăstria",
    "type": "lacase_cult",
    "lat": 46.9906165,
    "lon": 25.9802275,
    "source": "csv"
  },
  {
    "name": "Biserica Măcărești",
    "type": "lacase_cult",
    "lat": 47.0304893,
    "lon": 27.9787891,
    "source": "csv"
  },
  {
    "name": "Mănăstirea Ștefan cel Mare",
    "type": "lacase_cult",
    "lat": 46.2232962,
    "lon": 26.5251833,
    "source": "csv"
  },
  {
    "name": "Biserica",
    "type": "lacase_cult",
    "lat": 46.8321058,
    "lon": 25.8230471,
    "source": "csv"
  },
  {
    "name": "Biserica Ecumenică",
    "type": "lacase_cult",
    "lat": 45.7501384,
    "lon": 22.9078451,
    "source": "csv"
  },
  {
    "name": "Biserica",
    "type": "lacase_cult",
    "lat": 47.1782705,
    "lon": 27.5804421,
    "source": "csv"
  },
  {
    "name": "Biserica Creștin Baptistă Biruința",
    "type": "lacase_cult",
    "lat": 45.8887747,
    "lon": 22.9082172,
    "source": "csv"
  },
  {
    "name": "Biserica Ortodoxă Noul Român",
    "type": "lacase_cult",
    "lat": 45.8049847,
    "lon": 24.5796727,
    "source": "csv"
  },
  {
    "name": "Biserica Prisăcani",
    "type": "lacase_cult",
    "lat": 47.0846664,
    "lon": 27.8827762,
    "source": "csv"
  },
  {
    "name": "Biserica Curelari",
    "type": "lacase_cult",
    "lat": 47.1665351,
    "lon": 27.590841,
    "source": "csv"
  },
  {
    "name": "Biserica Sfântul Ștefan",
    "type": "lacase_cult",
    "lat": 47.1720147,
    "lon": 27.5894033,
    "source": "csv"
  },
  {
    "name": "Biserica Marpod",
    "type": "lacase_cult",
    "lat": 45.8771798,
    "lon": 24.4976008,
    "source": "csv"
  },
  {
    "name": "Biserica de lemn din Ilimbav",
    "type": "lacase_cult",
    "lat": 45.8696638,
    "lon": 24.5268472,
    "source": "csv"
  },
  {
    "name": "Biserica Ortodoxă",
    "type": "lacase_cult",
    "lat": 47.0016606,
    "lon": 24.6077719,
    "source": "csv"
  },
  {
    "name": "Biserica de lemn din Sărata",
    "type": "lacase_cult",
    "lat": 47.070964,
    "lon": 24.4371149,
    "source": "csv"
  },
  {
    "name": "Biserica Sfânta Ana (Mănăstirea Ursulinelor)",
    "type": "lacase_cult",
    "lat": 47.0577192,
    "lon": 21.9323101,
    "source": "csv"
  },
  {
    "name": "\"Biserica Ortodoxă \"\"Platoul Romanilor\"\"\"",
    "type": "lacase_cult",
    "lat": 46.0714194,
    "lon": 23.552531,
    "source": "csv"
  },
  {
    "name": "Sala Regatului a Martorilor lui Iehova",
    "type": "lacase_cult",
    "lat": 46.0736901,
    "lon": 23.5555595,
    "source": "csv"
  },
  {
    "name": "Casa de Rugăciune Maranata",
    "type": "lacase_cult",
    "lat": 46.075988,
    "lon": 23.5573192,
    "source": "csv"
  },
  {
    "name": "Biserica Mihai Viteazul",
    "type": "lacase_cult",
    "lat": 46.0638198,
    "lon": 23.5733506,
    "source": "csv"
  },
  {
    "name": "Biserica Sf Apostoli Petru și Pavel",
    "type": "lacase_cult",
    "lat": 46.0730804,
    "lon": 23.5654461,
    "source": "csv"
  },
  {
    "name": "Biserica Baptistă",
    "type": "lacase_cult",
    "lat": 46.8239545,
    "lon": 21.6760909,
    "source": "csv"
  },
  {
    "name": "Liga Islamică și culturală",
    "type": "lacase_cult",
    "lat": 46.7612185,
    "lon": 23.5780645,
    "source": "csv"
  },
  {
    "name": "Casă de Rugăciuni Penticostală Muntele Sionului",
    "type": "lacase_cult",
    "lat": 45.8644626,
    "lon": 22.9096593,
    "source": "csv"
  },
  {
    "name": "Biserică cetate",
    "type": "lacase_cult",
    "lat": 46.0605341,
    "lon": 24.3427605,
    "source": "csv"
  },
  {
    "name": "Mănăstirea Trotușanu",
    "type": "lacase_cult",
    "lat": 45.984782,
    "lon": 27.0959059,
    "source": "csv"
  },
  {
    "name": "Biserica Munteni",
    "type": "lacase_cult",
    "lat": 47.4252398,
    "lon": 26.9073602,
    "source": "csv"
  },
  {
    "name": "Biserica Veche",
    "type": "lacase_cult",
    "lat": 45.0535713,
    "lon": 25.9573186,
    "source": "csv"
  },
  {
    "name": "Biserica Dacia",
    "type": "lacase_cult",
    "lat": 46.0091572,
    "lon": 25.1534211,
    "source": "csv"
  },
  {
    "name": "\"Biserica Greco-Catolică \"\"Sfinţii Apostoli Petru şi Pavel\"\"\"",
    "type": "lacase_cult",
    "lat": 47.81613,
    "lon": 24.061603,
    "source": "csv"
  },
  {
    "name": "Biserica Catolică Santău",
    "type": "lacase_cult",
    "lat": 47.5097739,
    "lon": 22.5079114,
    "source": "csv"
  },
  {
    "name": "Biserica",
    "type": "lacase_cult",
    "lat": 44.8916757,
    "lon": 21.7235625,
    "source": "csv"
  },
  {
    "name": "Biserica",
    "type": "lacase_cult",
    "lat": 46.9475331,
    "lon": 26.9979236,
    "source": "csv"
  },
  {
    "name": "Biserica Ortodoxă Precista Mare",
    "type": "lacase_cult",
    "lat": 46.9198534,
    "lon": 26.9278898,
    "source": "csv"
  },
  {
    "name": "Mânăstirea Gologanu",
    "type": "lacase_cult",
    "lat": 45.7450054,
    "lon": 27.7279963,
    "source": "csv"
  },
  {
    "name": "Biserica Biscaria",
    "type": "lacase_cult",
    "lat": 45.8556629,
    "lon": 23.0130238,
    "source": "csv"
  },
  {
    "name": "Biserica",
    "type": "lacase_cult",
    "lat": 47.8403983,
    "lon": 26.7503433,
    "source": "csv"
  },
  {
    "name": "Biserica Sfânta Mare Muceniță Ecaterina",
    "type": "lacase_cult",
    "lat": 44.22064,
    "lon": 28.5907291,
    "source": "csv"
  },
  {
    "name": "Biserica Reformată",
    "type": "lacase_cult",
    "lat": 47.4549844,
    "lon": 23.9067582,
    "source": "csv"
  },
  {
    "name": "Biserica Nouă",
    "type": "lacase_cult",
    "lat": 47.4681855,
    "lon": 23.9282472,
    "source": "csv"
  },
  {
    "name": "Biserica Lemn",
    "type": "lacase_cult",
    "lat": 47.4689162,
    "lon": 23.9279575,
    "source": "csv"
  },
  {
    "name": "Mănăstire Dragomirești",
    "type": "lacase_cult",
    "lat": 47.6583701,
    "lon": 24.3176951,
    "source": "csv"
  },
  {
    "name": "Biserica de lemn din Bogdan Vodă",
    "type": "lacase_cult",
    "lat": 47.6902499,
    "lon": 24.2683767,
    "source": "csv"
  },
  {
    "name": "Biserica Nouă",
    "type": "lacase_cult",
    "lat": 47.6899184,
    "lon": 24.2692109,
    "source": "csv"
  },
  {
    "name": "Biserica Lemn Șieu",
    "type": "lacase_cult",
    "lat": 47.7239757,
    "lon": 24.2226875,
    "source": "csv"
  },
  {
    "name": "Biserica Nouă",
    "type": "lacase_cult",
    "lat": 47.6679793,
    "lon": 24.1531059,
    "source": "csv"
  },
  {
    "name": "Biserica Lemn din Botiza",
    "type": "lacase_cult",
    "lat": 47.6675668,
    "lon": 24.153385,
    "source": "csv"
  },
  {
    "name": "Biserica Nouă",
    "type": "lacase_cult",
    "lat": 47.6993913,
    "lon": 24.1125506,
    "source": "csv"
  },
  {
    "name": "Biserica de Lemn din Poienile Izei",
    "type": "lacase_cult",
    "lat": 47.6987884,
    "lon": 24.1132936,
    "source": "csv"
  },
  {
    "name": "Biserica Săpânța – Nașterea Maicii Domnului",
    "type": "lacase_cult",
    "lat": 47.971476,
    "lon": 23.6949496,
    "source": "csv"
  },
  {
    "name": "Biserica de lemn veche din Bârsana",
    "type": "lacase_cult",
    "lat": 47.8205434,
    "lon": 24.0543923,
    "source": "csv"
  },
  {
    "name": "Biserica de lemn din Săliștea de Sus - Buleni",
    "type": "lacase_cult",
    "lat": 47.6580707,
    "lon": 24.3508924,
    "source": "csv"
  },
  {
    "name": "Biserica Culciu Mare",
    "type": "lacase_cult",
    "lat": 47.7571462,
    "lon": 23.055942,
    "source": "csv"
  },
  {
    "name": "Biserica Ortodoxă Borlești",
    "type": "lacase_cult",
    "lat": 47.6806356,
    "lon": 23.3309114,
    "source": "csv"
  },
  {
    "name": "Biserica Greco-Catolică Acvila",
    "type": "lacase_cult",
    "lat": 44.4229858,
    "lon": 26.0805932,
    "source": "csv"
  },
  {
    "name": "Biserica Sfântul Nicolae - Negustori",
    "type": "lacase_cult",
    "lat": 44.4339927,
    "lon": 26.1096516,
    "source": "csv"
  },
  {
    "name": "Biserica Ortodoxă Greacă",
    "type": "lacase_cult",
    "lat": 44.4385505,
    "lon": 26.1176703,
    "source": "csv"
  },
  {
    "name": "Biserica Cetate",
    "type": "lacase_cult",
    "lat": 45.7154778,
    "lon": 25.6848387,
    "source": "csv"
  },
  {
    "name": "Biserica",
    "type": "lacase_cult",
    "lat": 47.1114351,
    "lon": 27.5817852,
    "source": "csv"
  },
  {
    "name": "\"Biserica Ortodoxă \"\"Sfinții Ioachim și Ana - Oborul Vechi\"\"\"",
    "type": "lacase_cult",
    "lat": 44.4394422,
    "lon": 26.1209284,
    "source": "csv"
  },
  {
    "name": "Biserica Ortodoxă Popa Soare",
    "type": "lacase_cult",
    "lat": 44.4359064,
    "lon": 26.1185658,
    "source": "csv"
  },
  {
    "name": "Biserica Ortodoxă „Precupeții Vechi - a Tuturor Sfinților”",
    "type": "lacase_cult",
    "lat": 44.4464913,
    "lon": 26.1153812,
    "source": "csv"
  },
  {
    "name": "Biserica de lemn Goiești din 1712",
    "type": "lacase_cult",
    "lat": 46.3770464,
    "lon": 22.9233498,
    "source": "csv"
  },
  {
    "name": "Biserica Ortodoxă",
    "type": "lacase_cult",
    "lat": 46.3442355,
    "lon": 22.9180598,
    "source": "csv"
  },
  {
    "name": "Biserica Ortodoxă „Olari”",
    "type": "lacase_cult",
    "lat": 44.4387171,
    "lon": 26.1158539,
    "source": "csv"
  },
  {
    "name": "Biserica Ortodoxă „Sfinții Voievozi”",
    "type": "lacase_cult",
    "lat": 44.4457095,
    "lon": 26.0839578,
    "source": "csv"
  },
  {
    "name": "Mănăstirea Cârțișoara",
    "type": "lacase_cult",
    "lat": 45.6921686,
    "lon": 24.5933385,
    "source": "csv"
  },
  {
    "name": "Biserica Ortodoxă „Sfântul Pantelimon”",
    "type": "lacase_cult",
    "lat": 44.4424804,
    "lon": 26.1217895,
    "source": "csv"
  },
  {
    "name": "Biserica Ortodoxă Andronache",
    "type": "lacase_cult",
    "lat": 44.476829,
    "lon": 26.1517568,
    "source": "csv"
  },
  {
    "name": "Biserica Ortodoxă „Popa Șapcă” Voluntari",
    "type": "lacase_cult",
    "lat": 44.4858829,
    "lon": 26.1801426,
    "source": "csv"
  },
  {
    "name": "Biserica Ortodoxă „Sf. Cuv. Paraschiva Galileea Străulești”",
    "type": "lacase_cult",
    "lat": 44.4971158,
    "lon": 26.0290689,
    "source": "csv"
  },
  {
    "name": "Biserica Ortodoxă Ghencea – Nașterea Domnului",
    "type": "lacase_cult",
    "lat": 44.4129019,
    "lon": 26.0605709,
    "source": "csv"
  },
  {
    "name": "Biserica Ortodoxă",
    "type": "lacase_cult",
    "lat": 45.7157275,
    "lon": 25.8078468,
    "source": "csv"
  },
  {
    "name": "Biserica Înălțarea Domnului",
    "type": "lacase_cult",
    "lat": 44.4248331,
    "lon": 26.0224533,
    "source": "csv"
  },
  {
    "name": "Biserica Ortodoxă Nașterea Maicii Domnului – Drumul Taberei",
    "type": "lacase_cult",
    "lat": 44.4202502,
    "lon": 26.0281629,
    "source": "csv"
  },
  {
    "name": "Biserica Ortodoxă „Sfânta Maria - Herăstrău”",
    "type": "lacase_cult",
    "lat": 44.489852,
    "lon": 26.0930425,
    "source": "csv"
  },
  {
    "name": "Biserica Ortodoxă Spirea Nouă",
    "type": "lacase_cult",
    "lat": 44.423863,
    "lon": 26.0780903,
    "source": "csv"
  },
  {
    "name": "Biserica Ortodoxă Tudor Vladimirescu - Rahova",
    "type": "lacase_cult",
    "lat": 44.4044329,
    "lon": 26.0577406,
    "source": "csv"
  },
  {
    "name": "\"Biserica Ortodoxă \"\"Vovidenia\"\"\"",
    "type": "lacase_cult",
    "lat": 44.3994232,
    "lon": 26.0587911,
    "source": "csv"
  },
  {
    "name": "Biserica Ortodoxă Adormirea Maicii Domnului - Giulești",
    "type": "lacase_cult",
    "lat": 44.4682758,
    "lon": 26.0308373,
    "source": "csv"
  },
  {
    "name": "Sinagoga Bet Hamirdaș",
    "type": "lacase_cult",
    "lat": 44.4320134,
    "lon": 26.1063319,
    "source": "csv"
  },
  {
    "name": "Biserica Grădiștea de Munte",
    "type": "lacase_cult",
    "lat": 45.6330624,
    "lon": 23.2158674,
    "source": "csv"
  },
  {
    "name": "Biserica Ortodoxă „Ceauș Radu”",
    "type": "lacase_cult",
    "lat": 44.4291385,
    "lon": 26.1164966,
    "source": "csv"
  },
  {
    "name": "Biserica Ortodoxă Dudești Cioplea II",
    "type": "lacase_cult",
    "lat": 44.4158669,
    "lon": 26.1487225,
    "source": "csv"
  },
  {
    "name": "Biserica Ortodoxă Constantin Brâncoveanu Nouă",
    "type": "lacase_cult",
    "lat": 44.3833142,
    "lon": 26.1089983,
    "source": "csv"
  },
  {
    "name": "Biserica",
    "type": "lacase_cult",
    "lat": 46.5459803,
    "lon": 24.5631543,
    "source": "csv"
  },
  {
    "name": "Biserica",
    "type": "lacase_cult",
    "lat": 46.5459044,
    "lon": 24.5638565,
    "source": "csv"
  },
  {
    "name": "Biserica Ortodoxă Liceul Carol I",
    "type": "lacase_cult",
    "lat": 45.7983093,
    "lon": 24.1389216,
    "source": "csv"
  },
  {
    "name": "Biserica",
    "type": "lacase_cult",
    "lat": 44.9410611,
    "lon": 26.0462025,
    "source": "csv"
  },
  {
    "name": "Mănăstirea catolică „Don Orione” Iași",
    "type": "lacase_cult",
    "lat": 47.1759702,
    "lon": 27.5317733,
    "source": "csv"
  },
  {
    "name": "Biserica Gornet",
    "type": "lacase_cult",
    "lat": 45.0776467,
    "lon": 26.2608623,
    "source": "csv"
  },
  {
    "name": "Biserica Catolică Săcărâmb",
    "type": "lacase_cult",
    "lat": 45.9738928,
    "lon": 23.0365944,
    "source": "csv"
  },
  {
    "name": "Biserica Reformată Sângeorgiu de Mureș",
    "type": "lacase_cult",
    "lat": 46.5772855,
    "lon": 24.6056112,
    "source": "csv"
  },
  {
    "name": "Biserica Bichigiu",
    "type": "lacase_cult",
    "lat": 47.422453,
    "lon": 24.3431229,
    "source": "csv"
  },
  {
    "name": "Biserica Cuvioasa Parascheva",
    "type": "lacase_cult",
    "lat": 47.3632808,
    "lon": 24.39008,
    "source": "csv"
  },
  {
    "name": "Biserica Romuli",
    "type": "lacase_cult",
    "lat": 47.5407594,
    "lon": 24.4342497,
    "source": "csv"
  },
  {
    "name": "Biserica Dragomirești",
    "type": "lacase_cult",
    "lat": 47.6665762,
    "lon": 24.2960006,
    "source": "csv"
  },
  {
    "name": "Biserica Săcel",
    "type": "lacase_cult",
    "lat": 47.6387433,
    "lon": 24.4306881,
    "source": "csv"
  },
  {
    "name": "Biserica Sfântul Nicolae",
    "type": "lacase_cult",
    "lat": 44.1439166,
    "lon": 25.9684077,
    "source": "csv"
  },
  {
    "name": "Biserica Nouă",
    "type": "lacase_cult",
    "lat": 47.6582735,
    "lon": 24.3169814,
    "source": "csv"
  },
  {
    "name": "Biserica Suplai",
    "type": "lacase_cult",
    "lat": 47.4363661,
    "lon": 24.2591434,
    "source": "csv"
  },
  {
    "name": "Biserica Agrieș",
    "type": "lacase_cult",
    "lat": 47.3995893,
    "lon": 24.1358818,
    "source": "csv"
  },
  {
    "name": "Biserica ortodoxă",
    "type": "lacase_cult",
    "lat": 46.2181312,
    "lon": 24.35722,
    "source": "csv"
  },
  {
    "name": "Biserica evanghelică",
    "type": "lacase_cult",
    "lat": 46.217268,
    "lon": 24.3566222,
    "source": "csv"
  },
  {
    "name": "Biserica",
    "type": "lacase_cult",
    "lat": 44.9440212,
    "lon": 21.6144213,
    "source": "csv"
  },
  {
    "name": "Biserica",
    "type": "lacase_cult",
    "lat": 46.7611959,
    "lon": 23.558158,
    "source": "csv"
  },
  {
    "name": "Biserica Sf. Ioan Botezătorul - Bucium",
    "type": "lacase_cult",
    "lat": 47.1300079,
    "lon": 27.6209075,
    "source": "csv"
  },
  {
    "name": "Biserica creștină adventistă de ziua a șaptea",
    "type": "lacase_cult",
    "lat": 46.1609621,
    "lon": 24.3581692,
    "source": "csv"
  },
  {
    "name": "Biserica Baptistă Mediaș",
    "type": "lacase_cult",
    "lat": 46.1598454,
    "lon": 24.3586985,
    "source": "csv"
  },
  {
    "name": "Biserica de lemn Grămești (1668) „Adormirea Maicii Domnului”",
    "type": "lacase_cult",
    "lat": 45.1704627,
    "lon": 24.0656876,
    "source": "csv"
  },
  {
    "name": "Parohia Ortodoxă Sfântul Nicolae – Malaxa",
    "type": "lacase_cult",
    "lat": 44.4333876,
    "lon": 26.1905617,
    "source": "csv"
  },
  {
    "name": "Biserica de lemn din Poienile de sub Munte",
    "type": "lacase_cult",
    "lat": 47.8209727,
    "lon": 24.4361106,
    "source": "csv"
  },
  {
    "name": "Biserica cu Hramul Sfântul Ilie",
    "type": "lacase_cult",
    "lat": 47.6545136,
    "lon": 24.6622566,
    "source": "csv"
  },
  {
    "name": "Biserica Ortodoxă",
    "type": "lacase_cult",
    "lat": 46.829756,
    "lon": 21.6785654,
    "source": "csv"
  },
  {
    "name": "Biserica Cuvioasa Paraschiva",
    "type": "lacase_cult",
    "lat": 45.3837471,
    "lon": 27.0402001,
    "source": "csv"
  },
  {
    "name": "Biserica",
    "type": "lacase_cult",
    "lat": 44.9154761,
    "lon": 26.0204649,
    "source": "csv"
  },
  {
    "name": "Casa de rugaciuni Plopi",
    "type": "lacase_cult",
    "lat": 44.2820406,
    "lon": 24.9872702,
    "source": "csv"
  },
  {
    "name": "Biserica",
    "type": "lacase_cult",
    "lat": 44.9370548,
    "lon": 26.0251313,
    "source": "csv"
  },
  {
    "name": "Biserica Adormirea Maicii Domnului",
    "type": "lacase_cult",
    "lat": 44.9971804,
    "lon": 26.0017769,
    "source": "csv"
  },
  {
    "name": "Biserica Sfinții Arhangheli Mihail și Gavril",
    "type": "lacase_cult",
    "lat": 45.0183714,
    "lon": 25.9453134,
    "source": "csv"
  },
  {
    "name": "Mănăstirea catolică „Sfânta Familie”",
    "type": "lacase_cult",
    "lat": 44.4839532,
    "lon": 26.0440869,
    "source": "csv"
  },
  {
    "name": "Biserica Ortodoxă „16 Februarie”",
    "type": "lacase_cult",
    "lat": 44.4882733,
    "lon": 26.0229883,
    "source": "csv"
  },
  {
    "name": "\"Biserica Ortodoxă \"\"Sfinții Apostoli Petru și Pavel\"\"\"",
    "type": "lacase_cult",
    "lat": 47.6600365,
    "lon": 24.3565419,
    "source": "csv"
  },
  {
    "name": "Biserica de lemn din Săliștea de Sus - Nistorești",
    "type": "lacase_cult",
    "lat": 47.6625437,
    "lon": 24.3557335,
    "source": "csv"
  },
  {
    "name": "Biserica Ortodoxă Țesătorilor",
    "type": "lacase_cult",
    "lat": 45.7181784,
    "lon": 24.1542305,
    "source": "csv"
  },
  {
    "name": "Biserica Ortodoxă Sfânta Treime",
    "type": "lacase_cult",
    "lat": 45.7099205,
    "lon": 24.1420579,
    "source": "csv"
  },
  {
    "name": "Biserica Greco-catolică",
    "type": "lacase_cult",
    "lat": 45.7093303,
    "lon": 24.1414314,
    "source": "csv"
  },
  {
    "name": "Biserica Betel",
    "type": "lacase_cult",
    "lat": 45.7104556,
    "lon": 24.1433456,
    "source": "csv"
  },
  {
    "name": "Biserica Talpa",
    "type": "lacase_cult",
    "lat": 47.9012159,
    "lon": 26.2411133,
    "source": "csv"
  },
  {
    "name": "Biserica Creștină Adventistă",
    "type": "lacase_cult",
    "lat": 47.8384934,
    "lon": 26.6061995,
    "source": "csv"
  },
  {
    "name": "Biserica",
    "type": "lacase_cult",
    "lat": 47.8365381,
    "lon": 26.626183,
    "source": "csv"
  },
  {
    "name": "Biserica Ortodoxă Roma",
    "type": "lacase_cult",
    "lat": 47.8369683,
    "lon": 26.5992313,
    "source": "csv"
  },
  {
    "name": "Biserica Sarafinești",
    "type": "lacase_cult",
    "lat": 47.6169525,
    "lon": 26.6052479,
    "source": "csv"
  },
  {
    "name": "Biserica",
    "type": "lacase_cult",
    "lat": 47.5996741,
    "lon": 26.6435368,
    "source": "csv"
  },
  {
    "name": "Biserica Catolică",
    "type": "lacase_cult",
    "lat": 45.8644807,
    "lon": 25.8098051,
    "source": "csv"
  },
  {
    "name": "Biserica Sf. Cruce",
    "type": "lacase_cult",
    "lat": 45.4390522,
    "lon": 28.0291405,
    "source": "csv"
  },
  {
    "name": "Biserica Sf Apostoli Petru și Pavel",
    "type": "lacase_cult",
    "lat": 45.9114006,
    "lon": 23.852277,
    "source": "csv"
  },
  {
    "name": "Mănăstirea Stânișoara",
    "type": "lacase_cult",
    "lat": 45.3019434,
    "lon": 24.3383549,
    "source": "csv"
  },
  {
    "name": "Biserica Sfântul Gheorghe",
    "type": "lacase_cult",
    "lat": 43.7719976,
    "lon": 23.9502596,
    "source": "csv"
  },
  {
    "name": "Biserica Ortodoxă Bujoreni-Olteni",
    "type": "lacase_cult",
    "lat": 45.1457901,
    "lon": 24.3851187,
    "source": "csv"
  },
  {
    "name": "Mănăstirea Cerbu",
    "type": "lacase_cult",
    "lat": 44.9338734,
    "lon": 28.4351293,
    "source": "csv"
  },
  {
    "name": "Mănăstirea Horaița",
    "type": "lacase_cult",
    "lat": 47.0585682,
    "lon": 26.280081,
    "source": "csv"
  },
  {
    "name": "Mănăstirea Dragomirești",
    "type": "lacase_cult",
    "lat": 47.67254,
    "lon": 24.29021,
    "source": "csv"
  },
  {
    "name": "Mănăstirea Almas Putna",
    "type": "lacase_cult",
    "lat": 44.93341,
    "lon": 22.17096,
    "source": "csv"
  },
  {
    "name": "Mănăstirea Ilva Mare",
    "type": "lacase_cult",
    "lat": 47.37464,
    "lon": 24.9193,
    "source": "csv"
  },
  {
    "name": "Mănăstirea Nocrich Hartibaci",
    "type": "lacase_cult",
    "lat": 45.8725755,
    "lon": 24.4480628,
    "source": "csv"
  },
  {
    "name": "Mănăstirea Sfântul Pantelimon",
    "type": "lacase_cult",
    "lat": 44.35934,
    "lon": 24.97335,
    "source": "csv"
  },
  {
    "name": "Mănăstirea Parepa",
    "type": "lacase_cult",
    "lat": 44.9010143,
    "lon": 26.360882,
    "source": "csv"
  },
  {
    "name": "Mănăstirea Soldana",
    "type": "lacase_cult",
    "lat": 47.53627,
    "lon": 27.28277,
    "source": "csv"
  },
  {
    "name": "Mănăstirea Axiopolis",
    "type": "lacase_cult",
    "lat": 44.33457,
    "lon": 28.02075,
    "source": "csv"
  },
  {
    "name": "Mănăstirea Runc",
    "type": "lacase_cult",
    "lat": 46.74843,
    "lon": 26.74423,
    "source": "csv"
  },
  {
    "name": "Mănăstirea Alexandru Vlahuță",
    "type": "lacase_cult",
    "lat": 46.42062,
    "lon": 27.63082,
    "source": "csv"
  },
  {
    "name": "Mănăstirea Stelea",
    "type": "lacase_cult",
    "lat": 44.92886,
    "lon": 25.46227,
    "source": "csv"
  },
  {
    "name": "Mănăstirea Frasinei (bărbați)",
    "type": "lacase_cult",
    "lat": 45.2394054,
    "lon": 24.2609795,
    "source": "csv"
  },
  {
    "name": "Mănăstirea Godeanu",
    "type": "lacase_cult",
    "lat": 44.80116,
    "lon": 22.61809,
    "source": "csv"
  },
  {
    "name": "Mănăstirea Bâldana",
    "type": "lacase_cult",
    "lat": 44.59606,
    "lon": 25.76464,
    "source": "csv"
  },
  {
    "name": "Mănăstirea Popăuți",
    "type": "lacase_cult",
    "lat": 47.75593,
    "lon": 26.64556,
    "source": "csv"
  },
  {
    "name": "Biserica Adormirea Maicii Domnului",
    "type": "lacase_cult",
    "lat": 45.5725012,
    "lon": 23.6103893,
    "source": "csv"
  },
  {
    "name": "Mănăstirea Preutești",
    "type": "lacase_cult",
    "lat": 47.42569,
    "lon": 26.3778,
    "source": "csv"
  },
  {
    "name": "Mănăstirea Marcus",
    "type": "lacase_cult",
    "lat": 45.728161,
    "lon": 25.8695896,
    "source": "csv"
  },
  {
    "name": "Mănăstirea Cozancea",
    "type": "lacase_cult",
    "lat": 47.68906,
    "lon": 26.96529,
    "source": "csv"
  },
  {
    "name": "Mănăstirea Albac-Rogoz",
    "type": "lacase_cult",
    "lat": 46.4337047,
    "lon": 22.9660678,
    "source": "csv"
  },
  {
    "name": "Mănăstirea Plutonița Doroteia",
    "type": "lacase_cult",
    "lat": 47.51495,
    "lon": 25.80537,
    "source": "csv"
  },
  {
    "name": "Mănăstirea Habra",
    "type": "lacase_cult",
    "lat": 47.60185,
    "lon": 23.60968,
    "source": "csv"
  },
  {
    "name": "Mănăstirea Delta Neajlovului",
    "type": "lacase_cult",
    "lat": 44.18059,
    "lon": 26.0831029,
    "source": "csv"
  },
  {
    "name": "\"Mănăstirea \"\"Sfinții Apostoli Petru și Pavel\"\"\"",
    "type": "lacase_cult",
    "lat": 47.3745582,
    "lon": 24.4884328,
    "source": "csv"
  },
  {
    "name": "Mănăstirea Negru Vodă",
    "type": "lacase_cult",
    "lat": 45.26381,
    "lon": 25.04031,
    "source": "csv"
  },
  {
    "name": "Mănăstirea Socolul de Câmpie",
    "type": "lacase_cult",
    "lat": 46.79213,
    "lon": 24.51358,
    "source": "csv"
  },
  {
    "name": "Mănăstirea Moreni",
    "type": "lacase_cult",
    "lat": 46.51294,
    "lon": 27.73193,
    "source": "csv"
  },
  {
    "name": "Mănăstirea Corbii de Piatră",
    "type": "lacase_cult",
    "lat": 45.275397,
    "lon": 24.8111513,
    "source": "csv"
  },
  {
    "name": "Mănăstirea Răzoare",
    "type": "lacase_cult",
    "lat": 46.6862752,
    "lon": 24.1759974,
    "source": "csv"
  },
  {
    "name": "Mănăstirea Maglavit",
    "type": "lacase_cult",
    "lat": 44.0323807,
    "lon": 23.0652876,
    "source": "csv"
  },
  {
    "name": "Mănăstirea Antonești cu hramul Sfântul Ioan Botezătorul",
    "type": "lacase_cult",
    "lat": 45.3062908,
    "lon": 24.6607346,
    "source": "csv"
  },
  {
    "name": "Mănăstirea Topolnița",
    "type": "lacase_cult",
    "lat": 44.7599109,
    "lon": 22.6081507,
    "source": "csv"
  },
  {
    "name": "Mănăstirea Bunești",
    "type": "lacase_cult",
    "lat": 46.0920018,
    "lon": 25.1100579,
    "source": "csv"
  },
  {
    "name": "Mănăstirea Adamești",
    "type": "lacase_cult",
    "lat": 44.0017816,
    "lon": 25.2677632,
    "source": "csv"
  },
  {
    "name": "Mănăstirea Sfântul Ilie",
    "type": "lacase_cult",
    "lat": 46.9296152,
    "lon": 25.3439083,
    "source": "csv"
  },
  {
    "name": "Mănăstirea Ciucea",
    "type": "lacase_cult",
    "lat": 46.94816,
    "lon": 22.81506,
    "source": "csv"
  },
  {
    "name": "Mănăstirea Tarcău",
    "type": "lacase_cult",
    "lat": 46.7591128,
    "lon": 26.1812282,
    "source": "csv"
  },
  {
    "name": "Mănăstirea Doamnei",
    "type": "lacase_cult",
    "lat": 46.93176,
    "lon": 25.38742,
    "source": "csv"
  },
  {
    "name": "Mănăstirea Trivale",
    "type": "lacase_cult",
    "lat": 44.8531487,
    "lon": 24.8488399,
    "source": "csv"
  },
  {
    "name": "Mănăstirea Sfântul Nicolae",
    "type": "lacase_cult",
    "lat": 45.24996,
    "lon": 28.13535,
    "source": "csv"
  },
  {
    "name": "Mânăstirea Pângărați",
    "type": "lacase_cult",
    "lat": 46.93313,
    "lon": 26.17998,
    "source": "csv"
  },
  {
    "name": "Mănăstirea Robaia",
    "type": "lacase_cult",
    "lat": 45.2502887,
    "lon": 24.7360847,
    "source": "csv"
  },
  {
    "name": "Mănăstirea Moișeni",
    "type": "lacase_cult",
    "lat": 47.92787,
    "lon": 23.46739,
    "source": "csv"
  },
  {
    "name": "Mănăstirea Izbuc",
    "type": "lacase_cult",
    "lat": 46.394934,
    "lon": 22.4877932,
    "source": "csv"
  },
  {
    "name": "Mănăstirea Lacuri (Sf Nicolae)",
    "type": "lacase_cult",
    "lat": 47.4707241,
    "lon": 26.8462705,
    "source": "csv"
  },
  {
    "name": "Mănăstirea Vermești",
    "type": "lacase_cult",
    "lat": 46.41907,
    "lon": 26.47213,
    "source": "csv"
  },
  {
    "name": "Mănăstirea Turnu",
    "type": "lacase_cult",
    "lat": 45.2881444,
    "lon": 24.3084071,
    "source": "csv"
  },
  {
    "name": "Mănăstirea Dagâța",
    "type": "lacase_cult",
    "lat": 46.92531,
    "lon": 27.28032,
    "source": "csv"
  },
  {
    "name": "Mănăstirea Schimbarea la Față",
    "type": "lacase_cult",
    "lat": 46.535342,
    "lon": 23.6412745,
    "source": "csv"
  },
  {
    "name": "Schitul Ortodox „Ostrov”",
    "type": "lacase_cult",
    "lat": 45.24539,
    "lon": 24.34387,
    "source": "csv"
  },
  {
    "name": "Mănăstirea Cosustea - Crivelnic",
    "type": "lacase_cult",
    "lat": 44.8603,
    "lon": 22.71538,
    "source": "csv"
  },
  {
    "name": "Mănăstirea Boia",
    "type": "lacase_cult",
    "lat": 45.4815162,
    "lon": 24.3391085,
    "source": "csv"
  },
  {
    "name": "Mănăstirea Măgina",
    "type": "lacase_cult",
    "lat": 46.3354214,
    "lon": 23.6356194,
    "source": "csv"
  },
  {
    "name": "Mănăstirea Coșula",
    "type": "lacase_cult",
    "lat": 47.6220739,
    "lon": 26.7746722,
    "source": "csv"
  },
  {
    "name": "Mănăstirea Făget",
    "type": "lacase_cult",
    "lat": 47.5273,
    "lon": 23.29637,
    "source": "csv"
  },
  {
    "name": "Mãnãstirea Crasna",
    "type": "lacase_cult",
    "lat": 45.1839706,
    "lon": 23.5183851,
    "source": "csv"
  },
  {
    "name": "Mănăstirea Bichigiu",
    "type": "lacase_cult",
    "lat": 47.42896,
    "lon": 24.28797,
    "source": "csv"
  },
  {
    "name": "Mănăstirea Tanacu",
    "type": "lacase_cult",
    "lat": 46.68055,
    "lon": 27.79345,
    "source": "csv"
  },
  {
    "name": "Mănăstirea Sfânta Treime",
    "type": "lacase_cult",
    "lat": 44.59958,
    "lon": 24.89921,
    "source": "csv"
  },
  {
    "name": "Mănăstirea Moldova Sulița",
    "type": "lacase_cult",
    "lat": 47.6892469,
    "lon": 25.2191005,
    "source": "csv"
  },
  {
    "name": "Mănăstirea Sfântul Vasile cel Mare",
    "type": "lacase_cult",
    "lat": 47.01822,
    "lon": 26.41756,
    "source": "csv"
  },
  {
    "name": "Mănăstirea Rafaila",
    "type": "lacase_cult",
    "lat": 46.80119,
    "lon": 27.35183,
    "source": "csv"
  },
  {
    "name": "Mănăstirea Nima Râciului",
    "type": "lacase_cult",
    "lat": 46.69071,
    "lon": 24.44047,
    "source": "csv"
  },
  {
    "name": "Mănăstirea Sadova",
    "type": "lacase_cult",
    "lat": 43.9083608,
    "lon": 23.9203864,
    "source": "csv"
  },
  {
    "name": "Mănăstirea Barbu",
    "type": "lacase_cult",
    "lat": 45.1845727,
    "lon": 26.5845947,
    "source": "csv"
  },
  {
    "name": "Mănăstirea Aninoasa",
    "type": "lacase_cult",
    "lat": 45.190291,
    "lon": 24.9281999,
    "source": "csv"
  },
  {
    "name": "Mănăstirea Sfânta Ecaterina",
    "type": "lacase_cult",
    "lat": 44.40943,
    "lon": 25.1227,
    "source": "csv"
  },
  {
    "name": "Mănăstirea Cipăieni",
    "type": "lacase_cult",
    "lat": 46.5454485,
    "lon": 24.1513048,
    "source": "csv"
  },
  {
    "name": "Mănăstirea Sub Piatră",
    "type": "lacase_cult",
    "lat": 46.3839171,
    "lon": 23.4612399,
    "source": "csv"
  },
  {
    "name": "Mănăstirea Teodoreni",
    "type": "lacase_cult",
    "lat": 47.6764417,
    "lon": 26.2893896,
    "source": "csv"
  },
  {
    "name": "Mănăstirea Studina",
    "type": "lacase_cult",
    "lat": 43.97438,
    "lon": 24.41847,
    "source": "csv"
  },
  {
    "name": "Mănăstirea Florești",
    "type": "lacase_cult",
    "lat": 46.7216626,
    "lon": 23.5113353,
    "source": "csv"
  },
  {
    "name": "Mănăstirea Sfinții Apostoli Petru și Pavel",
    "type": "lacase_cult",
    "lat": 47.52988,
    "lon": 25.22291,
    "source": "csv"
  },
  {
    "name": "Mănăstirea Căluiu",
    "type": "lacase_cult",
    "lat": 44.4622805,
    "lon": 24.0306908,
    "source": "csv"
  },
  {
    "name": "Mănăstirea Vișina",
    "type": "lacase_cult",
    "lat": 45.1921795,
    "lon": 23.3918235,
    "source": "csv"
  },
  {
    "name": "Mănăstirea Vedea",
    "type": "lacase_cult",
    "lat": 44.7879429,
    "lon": 24.6361703,
    "source": "csv"
  },
  {
    "name": "Mănăstirea Halmyris",
    "type": "lacase_cult",
    "lat": 45.02257,
    "lon": 29.20526,
    "source": "csv"
  },
  {
    "name": "Mănăstirea Nechit",
    "type": "lacase_cult",
    "lat": 46.7693169,
    "lon": 26.3938989,
    "source": "csv"
  },
  {
    "name": "Mănăstirea Strâmba",
    "type": "lacase_cult",
    "lat": 44.7540924,
    "lon": 23.2997472,
    "source": "csv"
  },
  {
    "name": "Mănăstirea Râncăciov",
    "type": "lacase_cult",
    "lat": 44.90909,
    "lon": 25.03229,
    "source": "csv"
  },
  {
    "name": "Mănăstirea Codru",
    "type": "lacase_cult",
    "lat": 44.8157,
    "lon": 28.68654,
    "source": "csv"
  },
  {
    "name": "Mănăstirea Adâncata",
    "type": "lacase_cult",
    "lat": 47.71268,
    "lon": 26.35366,
    "source": "csv"
  },
  {
    "name": "Mănăstirea Dobric",
    "type": "lacase_cult",
    "lat": 47.2443873,
    "lon": 24.1276343,
    "source": "csv"
  },
  {
    "name": "Mănăstirea Fârdea",
    "type": "lacase_cult",
    "lat": 45.7455382,
    "lon": 22.1806512,
    "source": "csv"
  },
  {
    "name": "Mănăstirea Capidava",
    "type": "lacase_cult",
    "lat": 44.49423,
    "lon": 28.09281,
    "source": "csv"
  },
  {
    "name": "Mănăstirea Dimitrie Cantemir",
    "type": "lacase_cult",
    "lat": 46.5797393,
    "lon": 28.0181623,
    "source": "csv"
  },
  {
    "name": "Mănăstirea Mălăiești",
    "type": "lacase_cult",
    "lat": 45.10315,
    "lon": 26.0012,
    "source": "csv"
  },
  {
    "name": "Mănăstirea Râșca Transilvană",
    "type": "lacase_cult",
    "lat": 46.69361,
    "lon": 23.04257,
    "source": "csv"
  },
  {
    "name": "Mănăstirea Mamu",
    "type": "lacase_cult",
    "lat": 44.571316,
    "lon": 24.1973774,
    "source": "csv"
  },
  {
    "name": "Mănăstirea Sfântul Ioan Botezătorul -  Alba Iulia",
    "type": "lacase_cult",
    "lat": 46.0850546,
    "lon": 23.5462793,
    "source": "csv"
  },
  {
    "name": "Mănăstirea Jiana",
    "type": "lacase_cult",
    "lat": 44.4135762,
    "lon": 22.7400404,
    "source": "csv"
  },
  {
    "name": "Mănăstirea Sihăstria Voronei",
    "type": "lacase_cult",
    "lat": 47.55501,
    "lon": 26.69389,
    "source": "csv"
  },
  {
    "name": "Biserica Sfântul Nicolae Sohodol (2010)",
    "type": "lacase_cult",
    "lat": 46.3362854,
    "lon": 23.0110565,
    "source": "csv"
  },
  {
    "name": "Mănăstirea Lăpuș",
    "type": "lacase_cult",
    "lat": 47.52649,
    "lon": 24.03454,
    "source": "csv"
  },
  {
    "name": "Mănăstirea Guranda",
    "type": "lacase_cult",
    "lat": 47.7838805,
    "lon": 27.0535637,
    "source": "csv"
  },
  {
    "name": "Mănăstirea Mușunoaiele",
    "type": "lacase_cult",
    "lat": 45.99896,
    "lon": 27.0403,
    "source": "csv"
  },
  {
    "name": "Mănăstirea Cergăul Mic",
    "type": "lacase_cult",
    "lat": 46.0817709,
    "lon": 23.9335613,
    "source": "csv"
  },
  {
    "name": "Mănăstirea Sf. Ioan Iacob Corlățeni",
    "type": "lacase_cult",
    "lat": 47.4842287,
    "lon": 25.5008393,
    "source": "csv"
  },
  {
    "name": "Mănăstirea Izvorul Tămăduirii - Petrova",
    "type": "lacase_cult",
    "lat": 47.8458518,
    "lon": 24.1749022,
    "source": "csv"
  },
  {
    "name": "Mănăstirea Salva",
    "type": "lacase_cult",
    "lat": 47.3122487,
    "lon": 24.3734496,
    "source": "csv"
  },
  {
    "name": "Mănăstirea Bisericani",
    "type": "lacase_cult",
    "lat": 46.9552122,
    "lon": 26.2422081,
    "source": "csv"
  },
  {
    "name": "Mănăstirea Bolintin Vale",
    "type": "lacase_cult",
    "lat": 44.413036,
    "lon": 25.6895309,
    "source": "csv"
  },
  {
    "name": "Mănăstirea Podul Bulgarului",
    "type": "lacase_cult",
    "lat": 45.4404,
    "lon": 27.05005,
    "source": "csv"
  },
  {
    "name": "Mănăstirea Pârvești",
    "type": "lacase_cult",
    "lat": 46.47901,
    "lon": 27.74064,
    "source": "csv"
  },
  {
    "name": "Mănăstirea Sânmărtinu de Câmpie",
    "type": "lacase_cult",
    "lat": 46.72739,
    "lon": 24.42577,
    "source": "csv"
  },
  {
    "name": "Mănăstirea Popânzălești",
    "type": "lacase_cult",
    "lat": 44.2780459,
    "lon": 24.0752344,
    "source": "csv"
  },
  {
    "name": "Mănăstirea Grăjdeni",
    "type": "lacase_cult",
    "lat": 46.18048,
    "lon": 27.7909,
    "source": "csv"
  },
  {
    "name": "Biserica Adormirea Maicii Domnului (Izvorul Tămăduirii)",
    "type": "lacase_cult",
    "lat": 45.2169291,
    "lon": 25.2096687,
    "source": "csv"
  },
  {
    "name": "Mănăstirea Plăviceni",
    "type": "lacase_cult",
    "lat": 43.988,
    "lon": 24.6554,
    "source": "csv"
  },
  {
    "name": "Mănăstirea Cașva",
    "type": "lacase_cult",
    "lat": 46.80024,
    "lon": 24.88582,
    "source": "csv"
  },
  {
    "name": "Mănăstirea Jitianu",
    "type": "lacase_cult",
    "lat": 44.27189,
    "lon": 23.80211,
    "source": "csv"
  },
  {
    "name": "Mănăstirea Făget",
    "type": "lacase_cult",
    "lat": 45.8797501,
    "lon": 24.9693612,
    "source": "csv"
  },
  {
    "name": "Mănăstirea Strungari",
    "type": "lacase_cult",
    "lat": 45.8507458,
    "lon": 23.5101046,
    "source": "csv"
  },
  {
    "name": "Mănăstirea Crângu",
    "type": "lacase_cult",
    "lat": 43.8388594,
    "lon": 25.0532108,
    "source": "csv"
  },
  {
    "name": "Mănăstirea Crișan-Vaca",
    "type": "lacase_cult",
    "lat": 46.16913,
    "lon": 22.78001,
    "source": "csv"
  },
  {
    "name": "Mănăstirea Cotumba",
    "type": "lacase_cult",
    "lat": 46.48762,
    "lon": 26.18112,
    "source": "csv"
  },
  {
    "name": "Mănăstirea Sfântul Ștefan cel Mare și Sfânt",
    "type": "lacase_cult",
    "lat": 47.480776,
    "lon": 25.2686395,
    "source": "csv"
  },
  {
    "name": "Mănăstirea Văleni",
    "type": "lacase_cult",
    "lat": 45.2715334,
    "lon": 24.5537111,
    "source": "csv"
  },
  {
    "name": "Mănăstirea Sâmbăta Nouă",
    "type": "lacase_cult",
    "lat": 44.842,
    "lon": 28.41112,
    "source": "csv"
  },
  {
    "name": "Mănăstirea Petru Vodă",
    "type": "lacase_cult",
    "lat": 47.1784441,
    "lon": 25.9645042,
    "source": "csv"
  },
  {
    "name": "Mănăstirea Icoana",
    "type": "lacase_cult",
    "lat": 45.1804572,
    "lon": 23.5728026,
    "source": "csv"
  },
  {
    "name": "Mănăstirea Slănic",
    "type": "lacase_cult",
    "lat": 45.25272,
    "lon": 24.87055,
    "source": "csv"
  },
  {
    "name": "Mănăstirea Săraca",
    "type": "lacase_cult",
    "lat": 45.35098,
    "lon": 21.41629,
    "source": "csv"
  },
  {
    "name": "Mănăstirea Turnu Rosu",
    "type": "lacase_cult",
    "lat": 45.6161292,
    "lon": 24.3214673,
    "source": "csv"
  },
  {
    "name": "Mănăstirea Breaza",
    "type": "lacase_cult",
    "lat": 47.3765072,
    "lon": 24.0196746,
    "source": "csv"
  },
  {
    "name": "Mănăstirea Voievozi",
    "type": "lacase_cult",
    "lat": 47.19654,
    "lon": 22.36831,
    "source": "csv"
  },
  {
    "name": "Mănăstirea Scărișoara Nouă",
    "type": "lacase_cult",
    "lat": 47.61375,
    "lon": 22.24486,
    "source": "csv"
  },
  {
    "name": "Mănăstirea Bogdănița",
    "type": "lacase_cult",
    "lat": 46.50233,
    "lon": 27.67083,
    "source": "csv"
  },
  {
    "name": "Mănăstirea Viforâta",
    "type": "lacase_cult",
    "lat": 44.97366,
    "lon": 25.46574,
    "source": "csv"
  },
  {
    "name": "Mănăstirea Soporu de Câmpie",
    "type": "lacase_cult",
    "lat": 46.69349,
    "lon": 24.01617,
    "source": "csv"
  },
  {
    "name": "Mănăstirea Cornu Sf. Ioan Evanghelistul",
    "type": "lacase_cult",
    "lat": 45.1644419,
    "lon": 25.7162512,
    "source": "csv"
  },
  {
    "name": "Mănăstirea Gura Motrului",
    "type": "lacase_cult",
    "lat": 44.55155,
    "lon": 23.44467,
    "source": "csv"
  },
  {
    "name": "Mănăstirea Nucet",
    "type": "lacase_cult",
    "lat": 44.7828519,
    "lon": 25.5412795,
    "source": "csv"
  },
  {
    "name": "Mânăstirea Sf. Mare Mucenic Pantelimon",
    "type": "lacase_cult",
    "lat": 45.21358,
    "lon": 27.91516,
    "source": "csv"
  },
  {
    "name": "Mănăstirea Cerneți",
    "type": "lacase_cult",
    "lat": 44.6341732,
    "lon": 22.7080368,
    "source": "csv"
  },
  {
    "name": "Mănăstirea Sita Buzăului",
    "type": "lacase_cult",
    "lat": 45.66475,
    "lon": 26.07947,
    "source": "csv"
  },
  {
    "name": "Mănăstirea Gorovei",
    "type": "lacase_cult",
    "lat": 47.87767,
    "lon": 26.34804,
    "source": "csv"
  },
  {
    "name": "Mănăstirea Visterna",
    "type": "lacase_cult",
    "lat": 44.92124,
    "lon": 28.83395,
    "source": "csv"
  },
  {
    "name": "Mănăstirea Podu Coșnei",
    "type": "lacase_cult",
    "lat": 47.37307,
    "lon": 25.17949,
    "source": "csv"
  },
  {
    "name": "Mănăstirea Ieud",
    "type": "lacase_cult",
    "lat": 47.6644,
    "lon": 24.24681,
    "source": "csv"
  },
  {
    "name": "Mănăstirea Peștele Cotârgași",
    "type": "lacase_cult",
    "lat": 47.29392,
    "lon": 25.76424,
    "source": "csv"
  },
  {
    "name": "Mănăstirea Horăicioara",
    "type": "lacase_cult",
    "lat": 47.05302,
    "lon": 26.26804,
    "source": "csv"
  },
  {
    "name": "Mănăstirea Vladimirești",
    "type": "lacase_cult",
    "lat": 45.25388,
    "lon": 27.79084,
    "source": "csv"
  },
  {
    "name": "Mănăstirea Sfântul Nicolae - Fâstâci",
    "type": "lacase_cult",
    "lat": 46.7334026,
    "lon": 27.4503348,
    "source": "csv"
  },
  {
    "name": "Mănăstirea Gorganu",
    "type": "lacase_cult",
    "lat": 44.84614,
    "lon": 25.03865,
    "source": "csv"
  },
  {
    "name": "Mănăstirea Broșteni",
    "type": "lacase_cult",
    "lat": 47.31215,
    "lon": 26.55484,
    "source": "csv"
  },
  {
    "name": "Mănăstirea Recea",
    "type": "lacase_cult",
    "lat": 46.46313,
    "lon": 24.41855,
    "source": "csv"
  },
  {
    "name": "Catedrala Episcopală Huși",
    "type": "lacase_cult",
    "lat": 46.67665,
    "lon": 28.05798,
    "source": "csv"
  },
  {
    "name": "Mănăstirea Bascovele",
    "type": "lacase_cult",
    "lat": 44.9885017,
    "lon": 24.6582956,
    "source": "csv"
  },
  {
    "name": "Mănăstirea Sfântul Gheorghe",
    "type": "lacase_cult",
    "lat": 43.8893434,
    "lon": 25.3703478,
    "source": "csv"
  },
  {
    "name": "Mănăstirea Dejani",
    "type": "lacase_cult",
    "lat": 45.6727629,
    "lon": 24.9111185,
    "source": "csv"
  },
  {
    "name": "Mănăstirea Teț",
    "type": "lacase_cult",
    "lat": 45.6931542,
    "lon": 23.5524406,
    "source": "csv"
  },
  {
    "name": "Mănăstirea Brânceni",
    "type": "lacase_cult",
    "lat": 43.8787518,
    "lon": 25.4003673,
    "source": "csv"
  },
  {
    "name": "Mănăstirea Ceptura",
    "type": "lacase_cult",
    "lat": 45.00995,
    "lon": 26.33016,
    "source": "csv"
  },
  {
    "name": "Biserica Mănăstirii Brâncoveanu - Sâmbăta de Sus",
    "type": "lacase_cult",
    "lat": 45.6900619,
    "lon": 24.7946807,
    "source": "csv"
  },
  {
    "name": "Mănăstirea Ciolpani",
    "type": "lacase_cult",
    "lat": 46.74725,
    "lon": 26.7126,
    "source": "csv"
  },
  {
    "name": "Mănăstirea Băișoara",
    "type": "lacase_cult",
    "lat": 46.57634,
    "lon": 23.42025,
    "source": "csv"
  },
  {
    "name": "Mănăstirea Letea",
    "type": "lacase_cult",
    "lat": 45.29389,
    "lon": 29.51932,
    "source": "csv"
  },
  {
    "name": "Mănăstirea Peștera Gârcina",
    "type": "lacase_cult",
    "lat": 46.9719,
    "lon": 26.338,
    "source": "csv"
  },
  {
    "name": "Mănăstirea Dinogeția",
    "type": "lacase_cult",
    "lat": 45.3819981,
    "lon": 28.129751,
    "source": "csv"
  },
  {
    "name": "Mănăstirea Muntele Pietricica",
    "type": "lacase_cult",
    "lat": 46.927116,
    "lon": 26.3846829,
    "source": "csv"
  },
  {
    "name": "Mănăstirea Berința",
    "type": "lacase_cult",
    "lat": 47.51027,
    "lon": 23.67795,
    "source": "csv"
  },
  {
    "name": "Mănăstirea Nușeni",
    "type": "lacase_cult",
    "lat": 47.10834,
    "lon": 24.223,
    "source": "csv"
  },
  {
    "name": "Mănăstirea Portărița",
    "type": "lacase_cult",
    "lat": 47.86863,
    "lon": 23.25509,
    "source": "csv"
  },
  {
    "name": "Mănăstirea Buna Vestire",
    "type": "lacase_cult",
    "lat": 47.1033301,
    "lon": 21.8876023,
    "source": "csv"
  },
  {
    "name": "Mănăstirea Dobrești",
    "type": "lacase_cult",
    "lat": 45.9031308,
    "lon": 21.934658,
    "source": "csv"
  },
  {
    "name": "Mănăstirea Piatra Craiului",
    "type": "lacase_cult",
    "lat": 46.97948,
    "lon": 22.6943,
    "source": "csv"
  },
  {
    "name": "Mănăstirea Sfântul Sava - Berzunți",
    "type": "lacase_cult",
    "lat": 46.4171,
    "lon": 26.5775,
    "source": "csv"
  },
  {
    "name": "Mănăstirea Chițorani",
    "type": "lacase_cult",
    "lat": 44.97412,
    "lon": 26.11857,
    "source": "csv"
  },
  {
    "name": "Mănăstirea Cota 1000",
    "type": "lacase_cult",
    "lat": 45.3063137,
    "lon": 25.5104037,
    "source": "csv"
  },
  {
    "name": "Mănăstirea Nicula",
    "type": "lacase_cult",
    "lat": 47.0018,
    "lon": 23.95718,
    "source": "csv"
  },
  {
    "name": "Mănăstirea Sfântul Ioan Botezătorul - Rimetea",
    "type": "lacase_cult",
    "lat": 46.483403,
    "lon": 23.5812257,
    "source": "csv"
  },
  {
    "name": "Mănăstirea Baia de Aramă",
    "type": "lacase_cult",
    "lat": 45.00033,
    "lon": 22.80439,
    "source": "csv"
  },
  {
    "name": "Mănăstirea Bunea",
    "type": "lacase_cult",
    "lat": 45.06168,
    "lon": 25.35862,
    "source": "csv"
  },
  {
    "name": "Mănăstirea Știubieni",
    "type": "lacase_cult",
    "lat": 47.97315,
    "lon": 26.85579,
    "source": "csv"
  },
  {
    "name": "Mănăstirea Valea Teilor",
    "type": "lacase_cult",
    "lat": 45.11275,
    "lon": 28.49508,
    "source": "csv"
  },
  {
    "name": "Schitul Fărău-Șilea",
    "type": "lacase_cult",
    "lat": 46.340626,
    "lon": 24.0436151,
    "source": "csv"
  },
  {
    "name": "Mănăstirea Rarău",
    "type": "lacase_cult",
    "lat": 47.43233,
    "lon": 25.58367,
    "source": "csv"
  },
  {
    "name": "Mănăstirea Rohita",
    "type": "lacase_cult",
    "lat": 47.37441,
    "lon": 23.97169,
    "source": "csv"
  },
  {
    "name": "Mănăstirea Mircea Vodă",
    "type": "lacase_cult",
    "lat": 44.2692805,
    "lon": 28.1395347,
    "source": "csv"
  },
  {
    "name": "Mănăstirea Cheile Cibului",
    "type": "lacase_cult",
    "lat": 46.0354186,
    "lon": 23.1855499,
    "source": "csv"
  },
  {
    "name": "Mănăstirea Acoperământul Maicii Domnului - Pârteștii de Jos",
    "type": "lacase_cult",
    "lat": 47.6023143,
    "lon": 25.9241852,
    "source": "csv"
  },
  {
    "name": "Mănăstirea Dumbravele",
    "type": "lacase_cult",
    "lat": 47.06317,
    "lon": 26.40318,
    "source": "csv"
  },
  {
    "name": "Mănăstirea Sfântul Gheorghe",
    "type": "lacase_cult",
    "lat": 43.91976,
    "lon": 25.97244,
    "source": "csv"
  },
  {
    "name": "Mănăstirea Piatra Fântânele",
    "type": "lacase_cult",
    "lat": 47.23895,
    "lon": 25.01093,
    "source": "csv"
  },
  {
    "name": "Mănăstirea Schimbarea la Față",
    "type": "lacase_cult",
    "lat": 46.67281,
    "lon": 28.02129,
    "source": "csv"
  },
  {
    "name": "Mănăstirea Glavacioc",
    "type": "lacase_cult",
    "lat": 44.47211,
    "lon": 25.25593,
    "source": "csv"
  },
  {
    "name": "Mănăstirea Almaș",
    "type": "lacase_cult",
    "lat": 47.01283,
    "lon": 26.32926,
    "source": "csv"
  },
  {
    "name": "Mănăstirea Poiana lui Borș",
    "type": "lacase_cult",
    "lat": 46.62218,
    "lon": 27.41399,
    "source": "csv"
  },
  {
    "name": "Mănăstirea Cotmeana",
    "type": "lacase_cult",
    "lat": 44.9613348,
    "lon": 24.6212173,
    "source": "csv"
  },
  {
    "name": "Mănăstirea Sfântul Fanurie",
    "type": "lacase_cult",
    "lat": 44.3696886,
    "lon": 24.9766587,
    "source": "csv"
  },
  {
    "name": "Mănăstirea Jacul Românesc",
    "type": "lacase_cult",
    "lat": 46.3211677,
    "lon": 24.8139606,
    "source": "csv"
  },
  {
    "name": "Mănăstirea Vodița",
    "type": "lacase_cult",
    "lat": 44.7244673,
    "lon": 22.4889175,
    "source": "csv"
  },
  {
    "name": "Mănăstirea Crășani",
    "type": "lacase_cult",
    "lat": 44.59209,
    "lon": 26.86588,
    "source": "csv"
  },
  {
    "name": "Mănăstirea Berivoii Mari",
    "type": "lacase_cult",
    "lat": 45.6830866,
    "lon": 24.9757401,
    "source": "csv"
  },
  {
    "name": "Mănăstirea Giurgeni",
    "type": "lacase_cult",
    "lat": 46.81184,
    "lon": 27.1085,
    "source": "csv"
  },
  {
    "name": "Mănăstirea Măinești",
    "type": "lacase_cult",
    "lat": 44.32972,
    "lon": 24.10574,
    "source": "csv"
  },
  {
    "name": "Biserica Ortodoxă Sf Mihail și Gavril",
    "type": "lacase_cult",
    "lat": 46.9642474,
    "lon": 23.4619009,
    "source": "csv"
  },
  {
    "name": "Mănăstirea Tarnița",
    "type": "lacase_cult",
    "lat": 45.8562833,
    "lon": 26.9611008,
    "source": "csv"
  },
  {
    "name": "Mănăstirea Sf Daniil Sihastrul",
    "type": "lacase_cult",
    "lat": 47.86859,
    "lon": 25.53255,
    "source": "csv"
  },
  {
    "name": "Mănăstirea Călugăra",
    "type": "lacase_cult",
    "lat": 45.0225457,
    "lon": 21.7648009,
    "source": "csv"
  },
  {
    "name": "Biserica",
    "type": "lacase_cult",
    "lat": 43.8568656,
    "lon": 24.2900901,
    "source": "csv"
  },
  {
    "name": "Biserica veche",
    "type": "lacase_cult",
    "lat": 43.8574464,
    "lon": 24.2903827,
    "source": "csv"
  },
  {
    "name": "Biserica",
    "type": "lacase_cult",
    "lat": 47.1392607,
    "lon": 27.5780552,
    "source": "csv"
  },
  {
    "name": "Capela Sfântul Ioan Nepomuk",
    "type": "lacase_cult",
    "lat": 47.7393241,
    "lon": 23.4678047,
    "source": "csv"
  },
  {
    "name": "Biserica Fortificată",
    "type": "lacase_cult",
    "lat": 46.2402254,
    "lon": 24.2780705,
    "source": "csv"
  },
  {
    "name": "Biserica",
    "type": "lacase_cult",
    "lat": 45.1827341,
    "lon": 23.9663239,
    "source": "csv"
  },
  {
    "name": "Biserica",
    "type": "lacase_cult",
    "lat": 45.111634,
    "lon": 24.2058922,
    "source": "csv"
  },
  {
    "name": "Biserica",
    "type": "lacase_cult",
    "lat": 44.7857988,
    "lon": 21.7118734,
    "source": "csv"
  },
  {
    "name": "Biserica",
    "type": "lacase_cult",
    "lat": 46.1737309,
    "lon": 21.3443595,
    "source": "csv"
  },
  {
    "name": "Biserica Adventistă de Ziua a Șaptea Buzău",
    "type": "lacase_cult",
    "lat": 45.1557645,
    "lon": 26.8256828,
    "source": "csv"
  },
  {
    "name": "Biserica",
    "type": "lacase_cult",
    "lat": 46.7536934,
    "lon": 23.5516962,
    "source": "csv"
  },
  {
    "name": "Biserica Ortodoxă Mitoc",
    "type": "lacase_cult",
    "lat": 48.1052582,
    "lon": 27.0367977,
    "source": "csv"
  },
  {
    "name": "Biserica",
    "type": "lacase_cult",
    "lat": 45.2549578,
    "lon": 21.4159922,
    "source": "csv"
  },
  {
    "name": "Biserica cimitirului Deta",
    "type": "lacase_cult",
    "lat": 45.3974955,
    "lon": 21.2287375,
    "source": "csv"
  },
  {
    "name": "Biserica Cotnari-Horodiștea",
    "type": "lacase_cult",
    "lat": 47.3541025,
    "lon": 26.9280644,
    "source": "csv"
  },
  {
    "name": "Biserica Ortodoxă",
    "type": "lacase_cult",
    "lat": 44.139753,
    "lon": 22.9295893,
    "source": "csv"
  },
  {
    "name": "Biserica Ortodoxă",
    "type": "lacase_cult",
    "lat": 46.1684715,
    "lon": 24.3382211,
    "source": "csv"
  },
  {
    "name": "Biserica",
    "type": "lacase_cult",
    "lat": 46.151422,
    "lon": 21.2491214,
    "source": "csv"
  },
  {
    "name": "Biserica",
    "type": "lacase_cult",
    "lat": 45.1635164,
    "lon": 28.7953473,
    "source": "csv"
  },
  {
    "name": "Biserica Romano-Catolică (1891)",
    "type": "lacase_cult",
    "lat": 45.7182872,
    "lon": 22.885927,
    "source": "csv"
  },
  {
    "name": "Biserica Ortodoxă (1947)",
    "type": "lacase_cult",
    "lat": 45.7148227,
    "lon": 22.8863833,
    "source": "csv"
  },
  {
    "name": "Peștera Sfântului Apostol Andrei",
    "type": "lacase_cult",
    "lat": 44.0900361,
    "lon": 27.8258872,
    "source": "csv"
  },
  {
    "name": "Biserica Sfântu Nicolae",
    "type": "lacase_cult",
    "lat": 45.7462491,
    "lon": 22.8954775,
    "source": "csv"
  },
  {
    "name": "Biserica Penticostală",
    "type": "lacase_cult",
    "lat": 45.7487794,
    "lon": 22.8939162,
    "source": "csv"
  },
  {
    "name": "\"Biserica Greco Catolică \"\"Sfînta Treime\"\"\"",
    "type": "lacase_cult",
    "lat": 45.7487946,
    "lon": 22.9071454,
    "source": "csv"
  },
  {
    "name": "Biserica Romano-Catolică Govăjdia (1900)",
    "type": "lacase_cult",
    "lat": 45.7306366,
    "lon": 22.8140337,
    "source": "csv"
  },
  {
    "name": "Biserica Ortodoxă Govăjdia (1939)",
    "type": "lacase_cult",
    "lat": 45.7404727,
    "lon": 22.7935364,
    "source": "csv"
  },
  {
    "name": "Biserica",
    "type": "lacase_cult",
    "lat": 47.5054822,
    "lon": 23.7027637,
    "source": "csv"
  },
  {
    "name": "Biserica Chegea",
    "type": "lacase_cult",
    "lat": 47.4592944,
    "lon": 22.678284,
    "source": "csv"
  },
  {
    "name": "Betesda",
    "type": "lacase_cult",
    "lat": 46.9866367,
    "lon": 21.9819711,
    "source": "csv"
  },
  {
    "name": "Bethesda",
    "type": "lacase_cult",
    "lat": 46.9876769,
    "lon": 21.9850575,
    "source": "csv"
  },
  {
    "name": "Biserica ortodoxă română Băile Felix",
    "type": "lacase_cult",
    "lat": 46.9903641,
    "lon": 21.9778587,
    "source": "csv"
  },
  {
    "name": "Pogorârea Sfântului Spirit",
    "type": "lacase_cult",
    "lat": 46.9903652,
    "lon": 21.979303,
    "source": "csv"
  },
  {
    "name": "Biserica Ortodoxă (fostă catolică)",
    "type": "lacase_cult",
    "lat": 46.9918649,
    "lon": 21.9788136,
    "source": "csv"
  },
  {
    "name": "Martorii lui Iehova",
    "type": "lacase_cult",
    "lat": 44.8729673,
    "lon": 24.8451073,
    "source": "csv"
  },
  {
    "name": "Biserica Sfintele Femei Mironosițe și Nașterea Maicii Domnului",
    "type": "lacase_cult",
    "lat": 44.8740389,
    "lon": 24.8451773,
    "source": "csv"
  },
  {
    "name": "Biserica",
    "type": "lacase_cult",
    "lat": 45.8612,
    "lon": 25.8015142,
    "source": "csv"
  },
  {
    "name": "Biserica Ariceștii Zeletin",
    "type": "lacase_cult",
    "lat": 45.2240385,
    "lon": 26.1800065,
    "source": "csv"
  },
  {
    "name": "Biserica Ortodoxa",
    "type": "lacase_cult",
    "lat": 47.0398638,
    "lon": 24.1495669,
    "source": "csv"
  },
  {
    "name": "Református templom",
    "type": "lacase_cult",
    "lat": 47.0422254,
    "lon": 24.1422713,
    "source": "csv"
  },
  {
    "name": "Biserica Surani",
    "type": "lacase_cult",
    "lat": 45.1999513,
    "lon": 26.1829654,
    "source": "csv"
  },
  {
    "name": "Biserica stilistă Covasna",
    "type": "lacase_cult",
    "lat": 45.8483031,
    "lon": 26.207167,
    "source": "csv"
  },
  {
    "name": "Biserica Catolică",
    "type": "lacase_cult",
    "lat": 46.089356,
    "lon": 21.6926511,
    "source": "csv"
  },
  {
    "name": "Biserica Adventistă",
    "type": "lacase_cult",
    "lat": 46.0901902,
    "lon": 21.6932971,
    "source": "csv"
  },
  {
    "name": "Biserica Evangheliei Depline",
    "type": "lacase_cult",
    "lat": 46.0773203,
    "lon": 21.6937977,
    "source": "csv"
  },
  {
    "name": "Sf Nicolae",
    "type": "lacase_cult",
    "lat": 47.0965302,
    "lon": 27.5379598,
    "source": "csv"
  },
  {
    "name": "Biserica Sfântul Ilie Tezviteanul",
    "type": "lacase_cult",
    "lat": 45.3185696,
    "lon": 26.3761109,
    "source": "csv"
  },
  {
    "name": "Biserica Sfântul Ierarh Nicolae Begu",
    "type": "lacase_cult",
    "lat": 45.3385296,
    "lon": 26.3979,
    "source": "csv"
  },
  {
    "name": "Biserica Gornet",
    "type": "lacase_cult",
    "lat": 45.1192507,
    "lon": 26.0744085,
    "source": "csv"
  },
  {
    "name": "Biserica Păcureți",
    "type": "lacase_cult",
    "lat": 45.1391159,
    "lon": 26.1403177,
    "source": "csv"
  },
  {
    "name": "Mănăstirea Apostolache",
    "type": "lacase_cult",
    "lat": 45.1300895,
    "lon": 26.260193,
    "source": "csv"
  },
  {
    "name": "Mănăstirea Acoperământul Maicii Domnului",
    "type": "lacase_cult",
    "lat": 47.3433141,
    "lon": 25.4135396,
    "source": "csv"
  },
  {
    "name": "Biserica",
    "type": "lacase_cult",
    "lat": 45.0594567,
    "lon": 26.2212876,
    "source": "csv"
  },
  {
    "name": "Biserica Stâna",
    "type": "lacase_cult",
    "lat": 47.1531502,
    "lon": 23.1368074,
    "source": "csv"
  },
  {
    "name": "Biserica Sf Vineri",
    "type": "lacase_cult",
    "lat": 43.751003,
    "lon": 24.8678259,
    "source": "csv"
  },
  {
    "name": "Biserica",
    "type": "lacase_cult",
    "lat": 43.7510177,
    "lon": 24.8850448,
    "source": "csv"
  },
  {
    "name": "Schitul Horpaz",
    "type": "lacase_cult",
    "lat": 47.1126171,
    "lon": 27.5333235,
    "source": "csv"
  },
  {
    "name": "Biserica Ortodoxă din Moisei",
    "type": "lacase_cult",
    "lat": 47.6557085,
    "lon": 24.5869452,
    "source": "csv"
  },
  {
    "name": "Biserica Ortodoxă Vulcana-Pandele",
    "type": "lacase_cult",
    "lat": 45.0186102,
    "lon": 25.3969949,
    "source": "csv"
  },
  {
    "name": "Biserica din Dobrin",
    "type": "lacase_cult",
    "lat": 46.5866977,
    "lon": 23.1901647,
    "source": "csv"
  },
  {
    "name": "Biserica Adventistă Săpânța",
    "type": "lacase_cult",
    "lat": 47.9670592,
    "lon": 23.6948349,
    "source": "csv"
  },
  {
    "name": "biserica",
    "type": "lacase_cult",
    "lat": 44.870548,
    "lon": 25.7797523,
    "source": "csv"
  },
  {
    "name": "Biserica Geogel",
    "type": "lacase_cult",
    "lat": 46.3100185,
    "lon": 23.3781598,
    "source": "csv"
  },
  {
    "name": "Biserica Brădești",
    "type": "lacase_cult",
    "lat": 46.3321176,
    "lon": 23.4684348,
    "source": "csv"
  },
  {
    "name": "Biserica",
    "type": "lacase_cult",
    "lat": 45.0117083,
    "lon": 26.260936,
    "source": "csv"
  },
  {
    "name": "Biserica Evanghelică Șura Mare",
    "type": "lacase_cult",
    "lat": 45.8530578,
    "lon": 24.1656469,
    "source": "csv"
  },
  {
    "name": "Biserica Reformată Iris",
    "type": "lacase_cult",
    "lat": 46.7949725,
    "lon": 23.6008138,
    "source": "csv"
  },
  {
    "name": "Biserica Sf Arhangheli",
    "type": "lacase_cult",
    "lat": 46.9944491,
    "lon": 21.9965478,
    "source": "csv"
  },
  {
    "name": "Biserica Vulturi",
    "type": "lacase_cult",
    "lat": 47.2414608,
    "lon": 27.5319779,
    "source": "csv"
  },
  {
    "name": "Biserica Bontăieni",
    "type": "lacase_cult",
    "lat": 47.613251,
    "lon": 23.7174423,
    "source": "csv"
  },
  {
    "name": "Biserica Sf. Arhangheli Mihai și Gavril",
    "type": "lacase_cult",
    "lat": 47.1033231,
    "lon": 21.8832676,
    "source": "csv"
  },
  {
    "name": "Sf Varvara",
    "type": "lacase_cult",
    "lat": 46.2890764,
    "lon": 26.6087944,
    "source": "csv"
  },
  {
    "name": "Schitul Hadâmbu",
    "type": "lacase_cult",
    "lat": 47.0108588,
    "lon": 27.430443,
    "source": "csv"
  },
  {
    "name": "Biserica Creștină Baptistă Lipova",
    "type": "lacase_cult",
    "lat": 46.0936065,
    "lon": 21.7018226,
    "source": "csv"
  },
  {
    "name": "Biserica Adormirea Maicii Domnului",
    "type": "lacase_cult",
    "lat": 46.0927615,
    "lon": 21.6984307,
    "source": "csv"
  },
  {
    "name": "Biserica Sfinții Împărați Constantin și Elena",
    "type": "lacase_cult",
    "lat": 45.572943,
    "lon": 25.3412484,
    "source": "csv"
  },
  {
    "name": "Biserica Adventistă de Ziua a Șaptea Mangalia",
    "type": "lacase_cult",
    "lat": 43.8190205,
    "lon": 28.5710124,
    "source": "csv"
  },
  {
    "name": "Biserica de piatră",
    "type": "lacase_cult",
    "lat": 45.0251464,
    "lon": 24.1797566,
    "source": "csv"
  },
  {
    "name": "Biserica din lemn",
    "type": "lacase_cult",
    "lat": 45.0250154,
    "lon": 24.1787102,
    "source": "csv"
  },
  {
    "name": "Biserica Sf Gheorghe - 1830",
    "type": "lacase_cult",
    "lat": 45.172397,
    "lon": 25.6712057,
    "source": "csv"
  },
  {
    "name": "Sf Ioan",
    "type": "lacase_cult",
    "lat": 47.0069649,
    "lon": 27.7197524,
    "source": "csv"
  },
  {
    "name": "Mănăstirea Blaga",
    "type": "lacase_cult",
    "lat": 47.0076014,
    "lon": 27.7198409,
    "source": "csv"
  },
  {
    "name": "Biserica Ortodoxă Nușfalău",
    "type": "lacase_cult",
    "lat": 47.1972663,
    "lon": 22.7037839,
    "source": "csv"
  },
  {
    "name": "Biserica Reformată Nușfalău",
    "type": "lacase_cult",
    "lat": 47.1969091,
    "lon": 22.7024835,
    "source": "csv"
  },
  {
    "name": "Biserica Greco-Catolică Iaz",
    "type": "lacase_cult",
    "lat": 47.1189647,
    "lon": 22.688649,
    "source": "csv"
  },
  {
    "name": "Biserica Ortodoxă Iaz",
    "type": "lacase_cult",
    "lat": 47.1188588,
    "lon": 22.6871521,
    "source": "csv"
  },
  {
    "name": "Biserica",
    "type": "lacase_cult",
    "lat": 46.5418557,
    "lon": 24.557484,
    "source": "csv"
  },
  {
    "name": "Biserica Ortodoxă Sâg",
    "type": "lacase_cult",
    "lat": 47.0763538,
    "lon": 22.780057,
    "source": "csv"
  },
  {
    "name": "Biserica ortodoxa Tusa",
    "type": "lacase_cult",
    "lat": 47.0423857,
    "lon": 22.7754623,
    "source": "csv"
  },
  {
    "name": "Biserica Ortodoxă Mal",
    "type": "lacase_cult",
    "lat": 47.0694925,
    "lon": 22.8150861,
    "source": "csv"
  },
  {
    "name": "Biserica Ortodoxă Borod",
    "type": "lacase_cult",
    "lat": 47.0164056,
    "lon": 22.5772141,
    "source": "csv"
  },
  {
    "name": "Biserica",
    "type": "lacase_cult",
    "lat": 47.0173935,
    "lon": 22.5166663,
    "source": "csv"
  },
  {
    "name": "Biserica",
    "type": "lacase_cult",
    "lat": 47.0263828,
    "lon": 22.4738361,
    "source": "csv"
  },
  {
    "name": "Biserica ortodoxă Luncșoara",
    "type": "lacase_cult",
    "lat": 47.036765,
    "lon": 22.5411729,
    "source": "csv"
  },
  {
    "name": "Biserica",
    "type": "lacase_cult",
    "lat": 47.0520778,
    "lon": 22.4332784,
    "source": "csv"
  },
  {
    "name": "Biserica Sf Mihail și Gavril",
    "type": "lacase_cult",
    "lat": 46.710832,
    "lon": 23.7809141,
    "source": "csv"
  },
  {
    "name": "Biserica Ortodoxă Răscruci",
    "type": "lacase_cult",
    "lat": 46.9055473,
    "lon": 23.7667901,
    "source": "csv"
  },
  {
    "name": "Biserica Reformată Răscruci",
    "type": "lacase_cult",
    "lat": 46.9058349,
    "lon": 23.7720017,
    "source": "csv"
  },
  {
    "name": "Biserica Înălțarea Sfintei Cruci",
    "type": "lacase_cult",
    "lat": 46.9348107,
    "lon": 23.6645461,
    "source": "csv"
  },
  {
    "name": "Biserica Reformată",
    "type": "lacase_cult",
    "lat": 46.9290925,
    "lon": 23.6145765,
    "source": "csv"
  },
  {
    "name": "Biserica Sf Mihail și Gavril",
    "type": "lacase_cult",
    "lat": 46.9282242,
    "lon": 23.6118834,
    "source": "csv"
  },
  {
    "name": "Biserica Sf Nicolae",
    "type": "lacase_cult",
    "lat": 46.8877056,
    "lon": 23.5653163,
    "source": "csv"
  },
  {
    "name": "Biserica Reformată Măcicașu",
    "type": "lacase_cult",
    "lat": 46.8909685,
    "lon": 23.5649703,
    "source": "csv"
  },
  {
    "name": "Biserica Sfinții Mihail și Gavril",
    "type": "lacase_cult",
    "lat": 46.879775,
    "lon": 23.6227958,
    "source": "csv"
  },
  {
    "name": "Biserica de lemn",
    "type": "lacase_cult",
    "lat": 46.8074521,
    "lon": 23.7538523,
    "source": "csv"
  },